City_ID,City,Country,Date,Lat,Lng,Max Temp,Humidity,Cloudiness,Wind Speed
0,pangnirtung,CA,2022-02-05 02:25:46,66.1451,-65.7125,-18.4,69,40,3.44
1,port blair,IN,2022-02-05 02:25:47,11.6667,92.75,82.44,78,40,9.22
2,jamestown,US,2022-02-05 02:24:46,42.097,-79.2353,18.72,66,100,1.99
3,airai,TL,2022-02-05 02:22:45,-8.9266,125.4092,71.62,69,100,2.1
4,leningradskiy,RU,2022-02-05 02:23:24,69.3833,178.4167,-16.17,93,62,8.12
5,ahuimanu,US,2022-02-05 02:25:47,21.4447,-157.8378,78.85,64,20,3.0
6,ixtapa,MX,2022-02-05 02:25:48,20.7,-105.2,72.63,73,75,5.75
7,islamkot,PK,2022-02-05 02:25:48,24.6997,70.177,59.56,83,0,6.98
8,kirakira,SB,2022-02-05 02:25:49,-10.4544,161.9205,84.25,75,100,6.15
9,saskylakh,RU,2022-02-05 02:25:49,71.9167,114.0833,-9.0,99,99,5.28
10,castro,BR,2022-02-05 02:25:50,-24.7911,-50.0119,64.72,98,64,3.78
11,arman,RU,2022-02-05 02:25:50,59.7,150.1667,4.44,71,66,12.75
12,waingapu,ID,2022-02-05 02:22:17,-9.6567,120.2641,85.86,67,35,13.89
13,albany,US,2022-02-05 02:24:40,42.6001,-73.9662,17.91,84,100,3.36
14,ijui,BR,2022-02-05 02:25:51,-28.3878,-53.9147,77.02,83,1,3.09
15,rikitea,PF,2022-02-05 02:25:50,-23.1203,-134.9692,79.05,68,4,7.18
16,mar del plata,AR,2022-02-05 02:25:51,-38.0023,-57.5575,69.1,83,100,1.99
17,hithadhoo,MV,2022-02-05 02:25:51,-0.6,73.0833,81.66,73,99,11.43
18,bambous virieux,MU,2022-02-05 02:25:52,-20.3428,57.7575,80.22,89,75,17.27
19,avarua,CK,2022-02-05 02:25:52,-21.2078,-159.775,82.45,74,20,14.97
20,mareeba,AU,2022-02-05 02:25:52,-17.0,145.4333,80.44,85,100,2.55
21,vaini,TO,2022-02-05 02:25:53,-21.2,-175.2,77.16,94,75,13.8
22,kirov,RU,2022-02-05 02:25:53,58.5966,49.6601,15.84,90,100,10.56
23,chokurdakh,RU,2022-02-05 02:24:15,70.6333,147.9167,-30.32,100,14,1.57
24,atuona,PF,2022-02-05 02:25:54,-9.8,-139.0333,78.37,77,25,15.9
25,deputatskiy,RU,2022-02-05 02:22:27,69.3,139.9,-27.35,99,69,2.53
26,carnarvon,AU,2022-02-05 02:25:54,-24.8667,113.6333,104.07,16,11,12.66
27,hermanus,ZA,2022-02-05 02:24:05,-34.4187,19.2345,63.81,70,1,18.03
28,san cristobal,VE,2022-02-05 02:25:55,7.7669,-72.225,71.78,90,57,1.86
29,vostok,RU,2022-02-05 02:25:55,46.4856,135.8833,-1.64,86,100,4.47
30,arraial do cabo,BR,2022-02-05 02:25:55,-22.9661,-42.0278,75.97,86,100,21.81
31,bredasdorp,ZA,2022-02-05 02:25:56,-34.5322,20.0403,63.28,68,61,12.68
32,menongue,AO,2022-02-05 02:25:56,-14.6585,17.691,62.17,97,100,6.29
33,dingle,PH,2022-02-05 02:25:57,10.9995,122.6711,79.32,77,87,16.82
34,santa marta,CO,2022-02-05 02:25:57,11.2408,-74.199,82.89,66,4,20.0
35,baisha,CN,2022-02-05 02:25:58,26.5222,110.9311,43.61,75,22,1.48
36,cayenne,GF,2022-02-05 02:24:14,4.9333,-52.3333,79.09,88,75,5.99
37,gagino,RU,2022-02-05 02:21:09,55.2314,45.0339,19.54,95,100,12.8
38,sao joao da barra,BR,2022-02-05 02:25:58,-21.6403,-41.0511,76.23,85,98,21.61
39,tecolutla,MX,2022-02-05 02:25:59,20.4833,-97.0167,53.46,79,100,12.68
40,port elizabeth,ZA,2022-02-05 02:25:59,-33.918,25.5701,67.1,82,75,2.3
41,souillac,MU,2022-02-05 02:25:59,-20.5167,57.5167,80.37,89,75,17.27
42,tiksi,RU,2022-02-05 02:26:00,71.6872,128.8694,-22.13,98,72,7.34
43,kunigal,IN,2022-02-05 02:26:00,13.0222,77.0267,63.91,75,77,5.03
44,bluff,NZ,2022-02-05 02:26:00,-46.6,168.3333,59.81,56,60,5.53
45,pahalgam,IN,2022-02-05 02:26:01,34.0333,75.3333,9.07,65,0,14.45
46,maua,BR,2022-02-05 02:27:01,-23.6678,-46.4614,70.36,92,93,4.65
47,kapiri mposhi,ZM,2022-02-05 02:27:02,-13.9652,28.6809,61.77,98,100,3.76
48,kavieng,PG,2022-02-05 02:27:02,-2.5744,150.7967,83.88,69,100,5.82
49,georgetown,MY,2022-02-05 02:22:16,5.4112,100.3354,84.13,80,20,4.61
50,mataura,NZ,2022-02-05 02:27:02,-46.1927,168.8643,59.49,37,10,3.56
51,east london,ZA,2022-02-05 02:27:03,-33.0153,27.9116,68.38,89,100,7.65
52,basudebpur,IN,2022-02-05 02:27:03,21.1353,86.7386,64.62,62,0,5.1
53,astaneh-ye ashrafiyeh,IR,2022-02-05 02:27:04,37.2596,49.9444,48.13,90,16,3.83
54,leh,IN,2022-02-05 02:27:04,34.1667,77.5833,-8.27,88,100,4.18
55,port lincoln,AU,2022-02-05 02:27:04,-34.7333,135.8667,71.98,63,6,11.23
56,punta arenas,CL,2022-02-05 02:27:05,-53.15,-70.9167,46.51,71,0,3.44
57,algeciras,ES,2022-02-05 02:27:05,36.1333,-5.4505,58.68,67,100,12.66
58,lannion,FR,2022-02-05 02:27:06,48.75,-3.4167,43.14,88,75,6.91
59,kiruna,SE,2022-02-05 02:27:06,67.8557,20.2251,5.92,85,100,5.75
60,ushuaia,AR,2022-02-05 02:27:07,-54.8,-68.3,47.86,71,0,6.91
61,pacific grove,US,2022-02-05 02:27:07,36.6177,-121.9166,59.4,61,0,1.99
62,busselton,AU,2022-02-05 02:27:08,-33.65,115.3333,97.05,30,14,6.62
63,port alfred,ZA,2022-02-05 02:27:08,-33.5906,26.891,68.86,81,94,8.63
64,buchanan,LR,2022-02-05 02:27:08,5.8808,-10.0467,78.57,85,25,4.79
65,xichang,CN,2022-02-05 02:27:09,27.8964,102.2634,46.9,68,4,1.36
66,namatanai,PG,2022-02-05 02:27:09,-3.6667,152.4333,85.5,66,80,9.04
67,paamiut,GL,2022-02-05 02:23:58,61.994,-49.6678,6.37,90,100,7.49
68,beira,MZ,2022-02-05 02:27:10,-19.8436,34.8389,74.71,87,94,3.36
69,kuandian,CN,2022-02-05 02:27:10,40.7286,124.7847,10.74,53,2,6.13
70,christchurch,NZ,2022-02-05 02:27:11,-43.5333,172.6333,57.94,83,100,1.99
71,hambantota,LK,2022-02-05 02:27:11,6.1241,81.1185,75.54,100,83,2.3
72,mehamn,NO,2022-02-05 02:27:11,71.0357,27.8492,19.65,84,100,30.4
73,kapaa,US,2022-02-05 02:24:01,22.0752,-159.319,78.78,80,40,8.05
74,camacha,PT,2022-02-05 02:27:12,33.0833,-16.3333,60.53,94,20,4.61
75,piet retief,ZA,2022-02-05 02:27:12,-27.0071,30.8132,59.68,98,100,3.96
76,new norfolk,AU,2022-02-05 02:24:49,-42.7826,147.0587,66.9,52,97,1.01
77,tamworth,GB,2022-02-05 02:27:13,52.634,-1.6959,38.93,85,17,4.0
78,hurezani,RO,2022-02-05 02:27:13,44.8,23.65,27.36,63,4,1.19
79,hobart,AU,2022-02-05 02:25:46,-42.8794,147.3294,67.26,72,75,8.05
80,ribeira grande,PT,2022-02-05 02:27:14,38.5167,-28.7,59.02,81,27,14.43
81,klaksvik,FO,2022-02-05 02:23:49,62.2266,-6.589,34.72,54,96,23.87
82,san andres,CO,2022-02-05 02:27:14,12.5847,-81.7006,80.62,74,40,10.36
83,tasiilaq,GL,2022-02-05 02:27:15,65.6145,-37.6368,23.16,69,100,42.73
84,dibulla,CO,2022-02-05 02:27:15,11.2725,-73.3091,75.61,82,1,7.11
85,ziro,IN,2022-02-05 02:27:15,27.6333,93.8333,34.54,99,100,1.63
86,reyes,BO,2022-02-05 02:27:16,-14.3167,-67.3833,76.69,83,93,5.03
87,kaitangata,NZ,2022-02-05 02:27:16,-46.2817,169.8464,58.32,52,17,8.12
88,hasaki,JP,2022-02-05 02:27:16,35.7333,140.8333,46.29,38,6,18.07
89,atambua,ID,2022-02-05 02:23:39,-9.1061,124.8925,80.89,74,96,4.43
90,coahuayana,MX,2022-02-05 02:27:17,18.7333,-103.6833,76.48,77,5,1.9
91,cidreira,BR,2022-02-05 02:27:17,-30.1811,-50.2056,73.0,91,17,4.16
92,longyearbyen,SJ,2022-02-05 02:28:18,78.2186,15.6401,15.64,53,20,20.71
93,cape town,ZA,2022-02-05 02:28:18,-33.9258,18.4232,65.88,68,0,3.0
94,alice springs,AU,2022-02-05 02:28:19,-23.7,133.8833,76.55,38,0,4.61
95,riohacha,CO,2022-02-05 02:28:19,11.5444,-72.9072,76.41,79,1,12.75
96,sitka,US,2022-02-05 02:28:19,57.0531,-135.33,42.69,81,100,13.8
97,andros town,BS,2022-02-05 02:28:20,24.7,-77.7667,71.56,63,1,11.9
98,nikolskoye,RU,2022-02-05 02:28:20,59.7035,30.7861,18.39,88,99,11.95
99,alampur,IN,2022-02-05 02:28:21,15.8833,78.15,67.71,34,10,5.64
100,goderich,CA,2022-02-05 02:28:21,43.7501,-81.7165,12.9,78,100,4.61
101,bereda,ES,2022-02-05 02:28:21,43.2686,-7.5406,49.41,100,100,5.03
102,narsaq,GL,2022-02-05 02:28:15,60.9167,-46.05,-0.89,53,0,16.4
103,natal,BR,2022-02-05 02:28:22,-5.795,-35.2094,82.62,78,40,10.36
104,esperance,AU,2022-02-05 02:28:22,-33.8667,121.9,85.84,47,3,9.15
105,visby,SE,2022-02-05 02:28:23,57.6409,18.296,34.02,100,100,9.22
106,egvekinot,RU,2022-02-05 02:28:23,66.3167,-179.1667,-3.19,70,0,11.3
107,khatanga,RU,2022-02-05 02:24:15,71.9667,102.5,-35.9,100,87,2.66
108,la ronge,CA,2022-02-05 02:28:24,55.1001,-105.2842,-7.35,71,100,8.05
109,grindavik,IS,2022-02-05 02:28:24,63.8424,-22.4338,28.35,63,100,19.57
110,klichka,RU,2022-02-05 02:28:24,50.4457,117.996,0.52,83,100,4.56
111,bengkulu,ID,2022-02-05 02:28:25,-3.8004,102.2655,74.84,90,100,3.42
112,saint george,US,2022-02-05 02:28:25,37.1041,-113.5841,45.36,28,0,3.44
113,dzhebariki-khaya,RU,2022-02-05 02:28:26,62.2167,135.8,-27.98,97,78,2.26
114,fortuna,US,2022-02-05 02:28:26,40.5982,-124.1573,50.18,92,75,1.01
115,altus,US,2022-02-05 02:28:26,34.6381,-99.334,30.27,75,0,0.0
116,gijon,ES,2022-02-05 02:28:27,43.5357,-5.6615,53.8,95,100,3.0
117,amapa,BR,2022-02-05 02:28:27,1.0,-52.0,71.13,99,75,1.59
118,kodiak,US,2022-02-05 02:28:28,57.79,-152.4072,38.71,81,100,3.44
119,tuatapere,NZ,2022-02-05 02:28:28,-46.1333,167.6833,59.83,52,30,7.78
120,ormond beach,US,2022-02-05 02:28:29,29.2858,-81.0559,74.01,83,40,4.61
121,malanje,AO,2022-02-05 02:28:29,-9.5402,16.341,61.75,96,100,3.04
122,vardo,NO,2022-02-05 02:25:58,70.3705,31.1107,22.21,92,100,31.85
123,butaritari,KI,2022-02-05 02:28:30,3.0707,172.7902,82.62,77,47,18.12
124,upernavik,GL,2022-02-05 02:28:30,72.7868,-56.1549,2.25,97,100,10.54
125,karlshamn,SE,2022-02-05 02:28:30,56.1706,14.8619,37.51,82,100,15.55
126,tuktoyaktuk,CA,2022-02-05 02:28:31,69.4541,-133.0374,-23.8,76,0,17.27
127,kurumkan,RU,2022-02-05 02:28:31,54.3,110.3,-2.43,97,91,2.13
128,maine-soroa,NE,2022-02-05 02:28:31,13.2114,12.0241,58.55,31,4,10.63
129,kamaishi,JP,2022-02-05 02:28:32,39.2667,141.8833,29.35,50,15,18.03
130,bahia blanca,AR,2022-02-05 02:26:30,-38.7196,-62.2724,65.05,83,100,11.72
131,monticello,US,2022-02-05 02:28:32,45.3055,-93.7941,3.15,74,75,11.5
132,lerici,IT,2022-02-05 02:28:33,44.0759,9.9112,52.36,95,100,4.9
133,svatove,UA,2022-02-05 02:28:33,49.4103,38.1503,5.63,98,66,5.79
134,horodnya,UA,2022-02-05 02:28:34,51.8909,31.5974,11.19,100,100,4.83
135,soyo,AO,2022-02-05 02:28:34,-6.1349,12.3689,76.89,82,78,2.73
136,mahebourg,MU,2022-02-05 02:28:34,-20.4081,57.7,80.26,89,75,17.27
137,waddan,LY,2022-02-05 02:28:35,29.1614,16.139,49.05,48,0,4.83
138,kanniyakumari,IN,2022-02-05 02:28:35,8.0833,77.5667,77.05,81,29,2.73
139,geraldton,AU,2022-02-05 02:29:36,-28.7667,114.6,106.21,8,0,18.41
140,tamale,GH,2022-02-05 02:29:36,9.4008,-0.8393,73.87,14,0,7.11
141,komsomolskiy,UZ,2022-02-05 02:29:36,40.4272,71.7189,29.62,68,100,6.91
142,boyolangu,ID,2022-02-05 02:29:37,-8.1181,111.8935,80.22,76,89,1.54
143,normandin,CA,2022-02-05 02:29:37,48.8333,-72.5321,-5.49,71,100,6.91
144,arak,IR,2022-02-05 02:27:05,34.0917,49.6892,35.15,67,6,24.18
145,valreas,FR,2022-02-05 02:29:38,44.3837,4.9908,48.92,81,42,11.97
146,zhigansk,RU,2022-02-05 02:29:38,66.7697,123.3711,-28.88,99,99,5.23
147,nola,IT,2022-02-05 02:29:38,40.922,14.5329,56.93,78,88,2.66
148,tshane,BW,2022-02-05 02:29:39,-24.0196,21.8684,71.02,66,51,8.7
149,teseney,ER,2022-02-05 02:29:39,15.11,36.6575,65.93,73,8,7.85
150,general roca,AR,2022-02-05 02:29:40,-39.0333,-67.5833,63.0,64,61,17.4
151,itatskiy,RU,2022-02-05 02:29:40,56.07,89.0369,19.69,80,100,10.07
152,mahibadhoo,MV,2022-02-05 02:29:41,3.7833,72.9667,81.52,70,16,9.24
153,manggar,ID,2022-02-05 02:26:42,-2.8833,108.2667,81.68,75,100,4.76
154,slobozia,MD,2022-02-05 02:29:40,46.7281,29.7078,32.88,75,81,6.49
155,puerto ayora,EC,2022-02-05 02:29:41,-0.7393,-90.3518,75.54,92,75,3.0
156,hilo,US,2022-02-05 02:27:52,19.7297,-155.09,78.53,80,20,8.05
157,norman wells,CA,2022-02-05 02:29:42,65.282,-126.8329,-5.76,59,75,25.32
158,sao filipe,CV,2022-02-05 02:29:42,14.8961,-24.4956,73.08,73,0,9.26
159,victoria,HK,2022-02-05 02:27:55,22.2855,114.1577,60.24,77,100,3.0
160,ponta do sol,PT,2022-02-05 02:29:41,32.6667,-17.1,66.7,67,92,3.76
161,atbasar,KZ,2022-02-05 02:29:43,51.8,68.3333,8.51,80,100,7.54
162,nanortalik,GL,2022-02-05 02:29:43,60.1432,-45.2371,11.89,65,94,39.62
163,portland,US,2022-02-05 02:28:59,45.5234,-122.6762,50.2,87,100,1.01
164,barrow,US,2022-02-05 02:29:44,71.2906,-156.7887,-20.18,69,100,9.22
165,wageningen,NL,2022-02-05 02:29:44,51.9667,5.6667,41.9,85,75,9.22
166,verkhoyansk,RU,2022-02-05 02:29:44,67.5447,133.385,-34.8,97,60,1.23
167,povorino,RU,2022-02-05 02:29:45,51.1945,42.2457,12.76,97,90,7.27
168,lavrentiya,RU,2022-02-05 02:29:45,65.5833,-171.0,-8.81,82,1,8.86
169,tautira,PF,2022-02-05 02:29:46,-17.7333,-149.15,86.02,75,26,14.0
170,bosaso,SO,2022-02-05 02:29:46,11.2842,49.1816,72.01,51,0,4.59
171,krasnovishersk,RU,2022-02-05 02:29:46,60.4078,57.082,12.22,94,100,3.0
172,saint-philippe,RE,2022-02-05 02:29:47,-21.3585,55.7679,80.15,89,100,25.64
173,mandera,KE,2022-02-05 02:29:47,3.9366,41.867,73.96,25,44,4.76
174,magadan,RU,2022-02-05 02:29:48,59.5667,150.8,5.14,68,12,10.27
175,beringovskiy,RU,2022-02-05 02:29:48,63.05,179.3167,-7.24,86,54,12.19
176,sheridan,US,2022-02-05 02:29:48,44.8333,-106.9173,39.38,61,0,3.0
177,scarborough,GB,2022-02-05 02:26:36,54.2797,-0.4044,39.02,85,2,3.0
178,yellowknife,CA,2022-02-05 02:25:57,62.456,-114.3525,-26.45,76,100,5.75
179,rawson,AR,2022-02-05 02:29:49,-43.3002,-65.1023,59.59,57,86,19.06
180,champerico,GT,2022-02-05 02:29:49,14.3,-91.9167,82.35,71,5,5.1
181,dong hoi,VN,2022-02-05 02:29:50,17.4833,106.6,62.37,89,100,12.03
182,astana,KZ,2022-02-05 02:29:50,51.1801,71.446,-4.05,77,0,6.71
183,porto empedocle,IT,2022-02-05 02:29:51,37.2934,13.5264,49.89,80,1,4.09
184,saint-joseph,RE,2022-02-05 02:29:51,-21.3667,55.6167,79.16,85,100,22.66
185,vitim,RU,2022-02-05 02:30:51,59.4511,112.5578,9.97,92,100,7.2
186,burns lake,CA,2022-02-05 02:30:06,54.2331,-125.7533,35.02,80,100,7.83
187,iqaluit,CA,2022-02-05 02:30:13,63.7506,-68.5145,-16.87,58,75,0.0
188,kedrovyy,RU,2022-02-05 02:30:52,56.1667,91.8167,19.87,83,100,8.72
189,dunedin,NZ,2022-02-05 02:28:02,-45.8742,170.5036,57.11,57,100,6.53
190,gazojak,TM,2022-02-05 02:30:53,41.1875,61.4036,43.23,42,98,15.14
191,caravelas,BR,2022-02-05 02:30:53,-17.7125,-39.2481,75.56,92,100,6.64
192,lexington,US,2022-02-05 02:27:48,37.9887,-84.4777,26.6,86,75,6.91
193,colwyn bay,GB,2022-02-05 02:30:54,53.2948,-3.7267,44.82,79,46,15.77
194,huarmey,PE,2022-02-05 02:30:54,-10.0681,-78.1522,70.88,84,50,8.01
195,jalu,LY,2022-02-05 02:30:54,29.0331,21.5482,49.06,76,0,6.87
196,westport,US,2022-02-05 02:30:55,41.1415,-73.3579,32.76,87,100,1.99
197,laguna,US,2022-02-05 02:29:11,38.421,-121.4238,57.76,54,0,0.0
198,buala,SB,2022-02-05 02:30:55,-8.145,159.5921,83.71,78,100,9.4
199,jayuya,PR,2022-02-05 02:30:56,18.2186,-66.5916,69.44,95,31,1.01
200,elsfleth,DE,2022-02-05 02:30:56,53.2375,8.4566,40.03,97,85,15.39
201,severo-kurilsk,RU,2022-02-05 02:30:57,50.6789,156.125,31.26,85,92,9.22
202,aykhal,RU,2022-02-05 02:30:57,66.0,111.5,-22.13,100,90,5.17
203,guanica,PR,2022-02-05 02:30:57,17.9716,-66.908,74.19,86,1,4.45
204,severobaykalsk,RU,2022-02-05 02:30:57,55.65,109.3167,2.21,91,99,1.05
205,rio grande,BR,2022-02-05 02:30:06,-32.035,-52.0986,73.51,94,0,7.83
206,balikpapan,ID,2022-02-05 02:30:58,-1.2675,116.8289,85.19,74,20,6.91
207,mayo,US,2022-02-05 02:30:58,38.8876,-76.5119,37.42,82,100,3.0
208,perth,AU,2022-02-05 02:30:59,-31.9333,115.8333,102.38,15,0,12.66
209,saurimo,AO,2022-02-05 02:30:59,-9.6608,20.3916,62.78,97,100,3.38
210,sabha,LY,2022-02-05 02:30:59,27.0377,14.4283,48.07,36,0,5.97
211,abu samrah,SY,2022-02-05 02:31:00,35.3029,37.1841,42.17,93,3,7.11
212,tocopilla,CL,2022-02-05 02:30:18,-22.092,-70.1979,70.52,67,1,7.81
213,berlevag,NO,2022-02-05 02:31:00,70.8578,29.0864,20.62,80,100,27.49
214,jardim,BR,2022-02-05 02:31:01,-21.4803,-56.1381,75.11,83,52,4.23
215,molokovo,RU,2022-02-05 02:31:01,58.1661,36.7628,-1.14,100,100,4.23
216,zhoucheng,CN,2022-02-05 02:31:02,35.9122,116.3117,37.02,20,79,4.29
217,ulaangom,MN,2022-02-05 02:31:02,49.9811,92.0667,-19.61,94,93,0.54
218,pittsfield,US,2022-02-05 02:31:03,42.4501,-73.2454,26.8,87,100,1.99
219,otjimbingwe,NA,2022-02-05 02:31:03,-22.35,16.1333,71.15,58,87,5.28
220,lorengau,PG,2022-02-05 02:31:03,-2.0226,147.2712,85.17,63,98,8.79
221,kieta,PG,2022-02-05 02:31:04,-6.2167,155.6333,86.13,71,100,11.83
222,inta,RU,2022-02-05 02:31:04,66.0317,60.1659,2.32,97,99,5.75
223,vesyegonsk,RU,2022-02-05 02:31:05,58.664,37.2604,-0.6,100,100,3.8
224,ilulissat,GL,2022-02-05 02:31:05,69.2167,-51.1,10.42,67,75,13.8
225,mae sot,TH,2022-02-05 02:31:05,16.7167,98.5667,71.55,100,75,4.61
226,mahina,PF,2022-02-05 02:31:06,-17.5065,-149.489,85.77,54,40,18.41
227,santander,ES,2022-02-05 02:31:06,43.4647,-3.8044,50.47,70,100,17.0
228,qaanaaq,GL,2022-02-05 02:31:07,77.484,-69.3632,1.63,70,100,6.31
229,sur,OM,2022-02-05 02:28:40,22.5667,59.5289,68.74,51,12,8.55
230,faanui,PF,2022-02-05 02:30:39,-16.4833,-151.75,80.64,75,58,13.31
231,bilibino,RU,2022-02-05 02:31:07,68.0546,166.4372,-5.31,80,0,4.61
232,manokwari,ID,2022-02-05 02:31:08,-0.8667,134.0833,83.89,69,93,9.46
233,necochea,AR,2022-02-05 02:30:04,-38.5473,-58.7368,60.04,75,100,7.49
234,sovetskiy,RU,2022-02-05 02:32:08,61.3614,63.5842,5.0,97,100,2.33
235,karratha,AU,2022-02-05 02:32:09,-20.7377,116.8463,93.38,52,49,19.1
236,sydney,AU,2022-02-05 02:27:56,-33.8679,151.2073,76.33,55,40,5.99
237,greencastle,US,2022-02-05 02:32:09,39.6445,-86.8647,21.15,82,100,1.99
238,povolzhskiy,RU,2022-02-05 02:32:10,53.5854,49.7629,24.42,97,100,4.5
239,nicoya,CR,2022-02-05 02:32:10,10.1483,-85.452,80.15,75,23,8.5
240,avera,US,2022-02-05 02:32:10,33.194,-82.5271,51.67,83,100,15.26
241,balkhash,KZ,2022-02-05 02:32:11,46.844,74.9804,7.41,72,0,24.61
242,osmena,PH,2022-02-05 02:32:11,10.5208,119.9258,80.74,78,66,22.17
243,rundu,NA,2022-02-05 02:32:12,-17.9333,19.7667,65.97,93,97,3.69
244,kamsack,CA,2022-02-05 02:32:12,51.5667,-101.9009,-7.15,98,100,12.5
245,cherskiy,RU,2022-02-05 02:32:13,68.75,161.3,-29.94,96,9,3.53
246,kita,ML,2022-02-05 02:32:13,13.0349,-9.4895,69.4,15,0,3.62
247,pevek,RU,2022-02-05 02:32:14,69.7008,170.3133,-24.77,99,99,5.73
248,podporozhye,RU,2022-02-05 02:32:15,60.9112,34.1706,8.96,93,99,7.96
249,agua prieta,MX,2022-02-05 02:32:15,31.3,-109.5667,39.38,30,0,15.9
250,vao,NC,2022-02-05 02:32:15,-22.6667,167.4833,80.35,86,100,10.96
251,kalamb,IN,2022-02-05 02:32:16,19.05,73.95,64.44,43,82,2.93
252,garowe,SO,2022-02-05 02:32:16,8.4054,48.4845,60.24,60,9,6.58
253,nome,US,2022-02-05 02:30:36,64.5011,-165.4064,6.87,56,100,6.91
254,lobito,AO,2022-02-05 02:32:17,-12.3481,13.5456,74.59,73,100,5.61
255,manbij,SY,2022-02-05 02:32:17,36.5281,37.9549,39.97,86,0,8.68
256,cordoba,AR,2022-02-05 02:32:18,-31.4135,-64.1811,62.6,72,0,6.91
257,belaya gora,RU,2022-02-05 02:32:18,68.5333,146.4167,-31.47,99,55,1.74
258,luderitz,NA,2022-02-05 02:32:19,-26.6481,15.1594,68.63,71,90,4.41
259,praia,CV,2022-02-05 02:28:00,14.9215,-23.5087,70.34,78,0,16.11
260,bathsheba,BB,2022-02-05 02:30:38,13.2167,-59.5167,77.61,69,40,12.66
261,bukene,TZ,2022-02-05 02:32:19,-4.2333,32.8833,61.25,99,100,1.19
262,lethem,GY,2022-02-05 02:30:29,3.3803,-59.7968,78.1,74,99,10.11
263,selu,IN,2022-02-05 02:32:20,19.4667,76.4667,64.8,25,96,6.44
264,hobyo,SO,2022-02-05 02:32:21,5.3505,48.5268,74.14,71,18,13.82
265,zyryanka,RU,2022-02-05 02:32:11,65.75,150.85,-28.41,98,100,1.5
266,kawalu,ID,2022-02-05 02:32:21,-7.3817,108.2082,82.09,73,98,0.96
267,tongliao,CN,2022-02-05 02:32:22,43.6125,122.2653,11.62,71,2,11.81
268,iracoubo,GF,2022-02-05 02:32:22,5.4802,-53.2011,76.14,89,99,8.55
269,kualakapuas,ID,2022-02-05 02:32:23,-3.0091,114.3876,84.36,60,99,2.39
270,stornoway,GB,2022-02-05 02:32:23,58.2093,-6.3865,37.36,88,20,7.0
271,tura,IN,2022-02-05 02:30:34,25.5198,90.2201,57.74,85,31,2.26
272,havre-saint-pierre,CA,2022-02-05 02:32:23,50.2334,-63.5986,5.59,65,100,11.5
273,dolores,AR,2022-02-05 02:32:24,-36.3132,-57.6792,63.14,96,100,3.36
274,sijunjung,ID,2022-02-05 02:32:24,-0.6876,100.9537,74.39,94,100,1.07
275,sayyan,YE,2022-02-05 02:32:24,15.1718,44.3244,51.26,82,68,3.27
276,harper,LR,2022-02-05 02:33:25,4.375,-7.7169,78.6,83,80,5.48
277,port hedland,AU,2022-02-05 02:33:26,-20.3167,118.5667,93.25,59,75,18.41
278,tamandare,BR,2022-02-05 02:33:26,-8.7597,-35.1047,78.04,76,6,6.49
279,atar,MR,2022-02-05 02:33:26,20.5169,-13.0499,68.79,12,20,6.02
280,roald,NO,2022-02-05 02:33:27,62.5833,6.1333,39.0,75,40,34.52
281,gondar,ET,2022-02-05 02:33:27,12.6,37.4667,55.96,64,23,3.94
282,masaya,NI,2022-02-05 02:33:28,11.9744,-86.0942,80.26,59,6,12.06
283,storsteinnes,NO,2022-02-05 02:33:28,69.2408,19.2344,23.0,86,92,7.78
284,kapit,MY,2022-02-05 02:33:29,2.0167,112.9333,85.35,66,100,1.95
285,tsumeb,NA,2022-02-05 02:33:29,-19.2333,17.7167,67.55,81,100,2.37
286,sinnamary,GF,2022-02-05 02:33:30,5.3833,-52.95,75.7,90,95,8.39
287,acajutla,SV,2022-02-05 02:33:30,13.5928,-89.8275,78.8,77,41,8.88
288,kushiro,JP,2022-02-05 02:33:31,42.975,144.3747,25.75,63,20,5.75
289,sept-iles,CA,2022-02-05 02:33:31,50.2001,-66.3821,-0.94,64,100,5.01
290,roma,US,2022-02-05 02:33:31,43.2128,-75.4557,15.39,88,100,4.61
291,sibu,MY,2022-02-05 02:33:32,2.3,111.8167,84.51,79,40,5.01
292,pokhara,NP,2022-02-05 02:33:32,28.2333,83.9833,47.3,83,96,3.29
293,tarauaca,BR,2022-02-05 02:33:33,-8.1614,-70.7656,71.98,99,99,2.59
294,carman,CA,2022-02-05 02:33:33,49.4992,-98.0016,-4.88,71,99,9.22
295,lebu,CL,2022-02-05 02:30:37,-37.6167,-73.65,57.76,85,78,17.02
296,guerrero negro,MX,2022-02-05 02:30:52,27.9769,-114.0611,60.53,35,0,1.88
297,ozernovskiy,RU,2022-02-05 02:33:34,51.5,156.5167,30.13,77,93,3.4
298,farafangana,MG,2022-02-05 02:33:34,-22.8167,47.8333,77.5,91,100,19.3
299,biltine,TD,2022-02-05 02:33:34,14.5333,20.9167,60.42,23,5,18.41
300,yaviza,PA,2022-02-05 02:33:35,8.1537,-77.6931,72.75,96,17,1.05
301,belyy yar,RU,2022-02-05 02:33:35,53.6039,91.3903,-20.31,76,20,2.24
302,salisbury,GB,2022-02-05 02:33:36,51.0693,-1.7957,39.65,89,2,10.36
303,cap malheureux,MU,2022-02-05 02:31:06,-19.9842,57.6142,80.47,82,100,8.99
304,eresos,GR,2022-02-05 02:33:36,39.1667,25.9333,43.88,59,1,3.29
305,isangel,VU,2022-02-05 02:33:37,-19.55,169.2667,75.18,93,100,13.33
306,bonthe,SL,2022-02-05 02:33:37,7.5264,-12.505,74.82,85,10,1.16
307,ahipara,NZ,2022-02-05 02:33:37,-35.1667,173.1667,71.1,96,91,14.23
308,pamantingan,PH,2022-02-05 02:33:38,6.7044,124.4589,80.13,65,100,7.02
309,vuktyl,RU,2022-02-05 02:33:38,63.8567,57.3094,-5.67,100,91,2.24
310,harrison,US,2022-02-05 02:33:39,30.4091,-89.0436,37.45,89,100,17.27
311,san ignacio,BZ,2022-02-05 02:33:39,17.1561,-89.0714,73.54,88,75,11.5
312,sauda,NO,2022-02-05 02:33:39,59.6506,6.3542,41.68,89,100,10.69
313,thompson,CA,2022-02-05 02:33:40,55.7435,-97.8558,-20.04,76,0,5.75
314,mingaora,PK,2022-02-05 02:33:40,34.7758,72.3625,38.95,30,0,6.53
315,onguday,RU,2022-02-05 02:33:41,50.75,86.15,-6.41,95,5,3.06
316,novikovo,RU,2022-02-05 02:33:41,51.1537,37.8879,2.75,98,63,5.37
317,saint-pierre,RE,2022-02-05 02:33:42,-21.3393,55.4781,80.24,83,100,4.61
318,bay saint louis,US,2022-02-05 02:33:42,30.3088,-89.33,36.14,89,100,12.66
319,tingo maria,PE,2022-02-05 02:33:43,-9.2895,-76.0088,69.17,95,32,1.9
320,huron,US,2022-02-05 02:33:43,41.1501,-82.5499,17.69,98,98,5.64
321,port macquarie,AU,2022-02-05 02:34:44,-31.4333,152.9167,75.88,58,91,14.41
322,vaitape,PF,2022-02-05 02:34:45,-16.5167,-151.75,80.62,75,62,13.33
323,morgan city,US,2022-02-05 02:33:00,29.6994,-91.2068,37.99,75,75,13.8
324,zhuhai,CN,2022-02-05 02:34:45,22.2769,113.5678,60.98,71,40,17.27
325,flinders,AU,2022-02-05 02:32:02,-34.5833,150.8552,76.17,59,62,10.0
326,vila franca do campo,PT,2022-02-05 02:34:46,37.7167,-25.4333,59.2,78,100,8.59
327,karpathos,GR,2022-02-05 02:34:46,35.507,27.2132,51.76,66,1,27.63
328,sambava,MG,2022-02-05 02:34:47,-14.2667,50.1667,75.92,81,100,5.08
329,korem,ET,2022-02-05 02:34:47,12.5058,39.5228,48.58,28,5,1.25
330,henties bay,NA,2022-02-05 02:34:48,-22.116,14.2845,66.85,84,100,4.21
331,robertsport,LR,2022-02-05 02:34:48,6.7533,-11.3686,78.33,83,9,2.82
332,shirgaon,IN,2022-02-05 02:34:48,19.7,72.7,66.22,45,80,4.25
333,labuhan,ID,2022-02-05 02:30:35,-6.8844,112.2051,84.27,71,32,8.48
334,san ramon,US,2022-02-05 02:30:06,37.7799,-121.978,57.04,62,0,4.61
335,kruisfontein,ZA,2022-02-05 02:30:28,-34.0033,24.7314,64.89,78,63,4.03
336,wanxian,CN,2022-02-05 02:34:49,30.8039,108.3897,52.21,53,99,7.23
337,sola,VU,2022-02-05 02:34:49,-13.8833,167.55,82.54,77,100,21.34
338,nouakchott,MR,2022-02-05 02:34:50,18.0858,-15.9785,66.13,38,0,11.12
339,kidal,ML,2022-02-05 02:34:50,18.4411,1.4078,57.02,18,0,11.23
340,aklavik,CA,2022-02-05 02:34:51,68.2191,-135.0107,-21.17,90,6,17.67
341,beloha,MG,2022-02-05 02:34:51,-25.1667,45.05,74.25,87,34,13.82
342,bonfim,BR,2022-02-05 02:34:52,3.0833,-59.95,77.95,73,100,6.22
343,clyde river,CA,2022-02-05 02:34:52,70.4692,-68.5914,-12.77,77,0,14.97
344,mount gambier,AU,2022-02-05 02:34:53,-37.8333,140.7667,75.11,41,40,8.05
345,dakoro,NE,2022-02-05 02:34:53,14.5106,6.765,55.96,20,0,14.34
346,sibolga,ID,2022-02-05 02:34:53,1.7427,98.7792,81.63,70,100,0.76
347,homer,US,2022-02-05 02:34:54,59.6425,-151.5483,33.67,86,0,5.75
348,bezhetsk,RU,2022-02-05 02:34:54,57.7851,36.6965,1.89,100,98,4.56
349,mersing,MY,2022-02-05 02:34:55,2.4312,103.8405,82.31,78,40,9.22
350,baijiantan,CN,2022-02-05 02:34:55,45.6333,85.1833,3.38,90,48,1.34
351,tadine,NC,2022-02-05 02:34:56,-21.55,167.8833,81.05,86,98,16.37
352,acapulco,MX,2022-02-05 02:31:41,16.8634,-99.8901,76.82,78,20,2.3
353,balykshi,KZ,2022-02-05 02:34:56,47.0667,51.8667,32.0,100,100,13.42
354,talnakh,RU,2022-02-05 02:34:56,69.4865,88.3972,-7.64,97,92,4.7
355,pisco,PE,2022-02-05 02:34:57,-13.7,-76.2167,66.25,82,0,9.22
356,olafsvik,IS,2022-02-05 02:34:57,64.8945,-23.7142,27.23,65,100,22.55
357,tres lagoas,BR,2022-02-05 02:34:58,-20.7511,-51.6783,74.05,87,100,2.91
358,quatre cocos,MU,2022-02-05 02:34:58,-20.2078,57.7625,80.1,86,99,19.28
359,zhangjiakou,CN,2022-02-05 02:34:58,40.81,114.8794,14.02,43,1,6.04
360,calabozo,VE,2022-02-05 02:34:59,8.9242,-67.4293,83.66,37,72,7.49
361,penzance,GB,2022-02-05 02:34:59,50.1186,-5.5371,45.77,66,6,16.04
362,maneadero,MX,2022-02-05 02:35:00,31.7167,-116.5667,60.19,47,6,3.0
363,bogande,BF,2022-02-05 02:35:00,12.9714,-0.1436,64.06,15,2,9.42
364,edgewater,US,2022-02-05 02:30:53,28.9889,-80.9023,74.01,83,75,9.22
365,kununurra,AU,2022-02-05 02:35:00,-15.7667,128.7333,80.58,89,100,6.91
366,kahului,US,2022-02-05 02:35:01,20.8947,-156.47,83.46,73,40,14.97
367,brownsville,US,2022-02-05 02:35:01,25.9018,-97.4975,44.58,54,100,8.01
368,boma,GH,2022-02-05 02:36:02,7.0805,-2.1697,68.99,78,3,1.16
369,birin,NP,2022-02-05 02:36:02,26.8865,88.0718,41.25,91,100,3.04
370,buin,CL,2022-02-05 02:36:03,-33.7333,-70.75,72.73,61,0,1.72
371,dikson,RU,2022-02-05 02:36:03,73.5069,80.5464,-1.71,92,100,4.99
372,marsa matruh,EG,2022-02-05 02:36:03,31.3525,27.2453,53.98,67,10,14.63
373,nemuro,JP,2022-02-05 02:36:04,43.3236,145.575,27.03,63,6,15.55
374,port augusta,AU,2022-02-05 02:36:04,-32.5,137.7667,88.7,19,7,7.96
375,patrocinio,BR,2022-02-05 02:36:05,-18.9439,-46.9925,66.69,92,90,0.58
376,mount darwin,ZW,2022-02-05 02:36:05,-16.7725,31.5838,64.81,96,100,0.49
377,ekhabi,RU,2022-02-05 02:36:06,53.5102,142.9671,3.11,94,100,21.54
378,luba,GQ,2022-02-05 02:36:06,3.4568,8.5547,75.09,84,37,5.12
379,winder,US,2022-02-05 02:36:07,33.9926,-83.7202,42.37,86,40,11.5
380,banjar,ID,2022-02-05 02:36:07,-8.19,114.9675,82.26,68,50,4.29
381,lodwar,KE,2022-02-05 02:36:08,3.1191,35.5973,84.67,36,81,4.34
382,hammerfest,NO,2022-02-05 02:36:08,70.6634,23.6821,18.05,79,100,8.05
383,balkanabat,TM,2022-02-05 02:36:08,39.5108,54.3671,50.95,63,87,6.62
384,igrim,RU,2022-02-05 02:36:09,63.1906,64.4162,-13.79,100,85,2.28
385,cherepanovo,RU,2022-02-05 02:36:09,54.2222,83.381,-1.73,93,84,8.32
386,san carlos de bariloche,AR,2022-02-05 02:36:10,-41.1456,-71.3082,58.75,67,75,11.5
387,aljezur,PT,2022-02-05 02:36:10,37.3191,-8.8033,50.72,90,37,7.67
388,lagos,NG,2022-02-05 02:36:04,6.5833,3.75,80.92,92,0,2.93
389,huescar,ES,2022-02-05 02:36:11,37.811,-2.5412,49.12,63,100,2.8
390,sinnar,SD,2022-02-05 02:36:11,13.5691,33.5672,64.15,18,72,14.0
391,saint-francois,FR,2022-02-05 02:36:11,46.4154,3.9054,40.68,92,100,12.66
392,gat,IL,2022-02-05 02:36:01,31.61,34.7642,52.39,100,83,11.72
393,san patricio,US,2022-02-05 02:35:38,28.017,-97.5169,42.84,72,6,13.98
394,zarinsk,RU,2022-02-05 02:36:12,53.7074,84.9493,-3.1,99,95,4.12
395,nova olinda do norte,BR,2022-02-05 02:36:13,-3.8881,-59.0942,72.37,96,100,2.26
396,jieshi,CN,2022-02-05 02:36:13,22.8134,115.8257,54.95,68,66,9.73
397,carlsbad,US,2022-02-05 02:36:13,33.1581,-117.3506,63.75,41,0,1.99
398,alofi,NU,2022-02-05 02:36:14,-19.0595,-169.9187,76.89,94,100,8.05
399,huizhou,CN,2022-02-05 02:36:14,23.0833,114.4,52.29,64,100,7.18
400,bud,US,2022-02-05 02:33:25,39.447,-86.1758,19.89,85,88,6.76
401,husavik,IS,2022-02-05 02:36:15,66.0449,-17.3389,10.31,92,100,7.87
402,tucurui,BR,2022-02-05 02:36:15,-3.7661,-49.6725,72.82,97,99,4.21
403,niquero,CU,2022-02-05 02:36:16,20.0431,-77.5828,74.21,70,6,17.18
404,haapiti,PF,2022-02-05 02:36:16,-17.5667,-149.8667,83.93,74,73,13.8
405,salta,AR,2022-02-05 02:36:16,-24.7859,-65.4117,64.99,94,100,4.0
406,san quintin,MX,2022-02-05 02:36:17,30.4833,-115.95,56.75,56,5,3.36
407,verkhnevilyuysk,RU,2022-02-05 02:36:17,63.4453,120.3167,-13.0,92,84,2.35
408,broken hill,AU,2022-02-05 02:36:18,-31.95,141.4333,80.31,32,29,13.8
409,cockburn town,TC,2022-02-05 02:36:18,21.4612,-71.1419,75.76,73,0,17.52
410,vanimo,PG,2022-02-05 02:36:19,-2.6741,141.3028,85.8,68,53,9.28
411,semenivka,UA,2022-02-05 02:36:19,52.1783,32.5818,0.32,100,100,3.96
412,coquimbo,CL,2022-02-05 02:36:19,-29.9533,-71.3436,64.13,82,0,4.61
413,iseyin,NG,2022-02-05 02:37:20,7.9667,3.6,73.99,35,0,3.6
414,fairbanks,US,2022-02-05 02:34:24,64.8378,-147.7164,7.09,63,100,0.0
415,grand island,US,2022-02-05 02:37:21,40.925,-98.342,25.09,53,0,1.01
416,torbay,CA,2022-02-05 02:37:21,47.6666,-52.7314,33.76,96,100,12.66
417,asau,RO,2022-02-05 02:37:21,46.4333,26.4,22.28,74,41,6.15
418,alibag,IN,2022-02-05 02:37:22,18.6411,72.8792,69.87,68,25,4.05
419,morros,BR,2022-02-05 02:37:22,-9.4467,-46.3003,74.8,60,100,2.08
420,grand gaube,MU,2022-02-05 02:37:23,-20.0064,57.6608,80.38,82,99,11.99
421,monrovia,LR,2022-02-05 02:37:23,6.3005,-10.7969,77.97,83,12,1.41
422,la rioja,ES,2022-02-05 02:37:23,42.25,-2.5,38.05,91,100,2.82
423,lachhmangarh,IN,2022-02-05 02:37:24,27.8214,75.0251,52.95,52,0,5.5
424,dudinka,RU,2022-02-05 02:33:34,69.4058,86.1778,-2.42,96,95,6.04
425,kerman,IR,2022-02-05 02:37:24,30.2832,57.0788,44.46,39,0,4.61
426,salvador,SV,2022-02-05 02:37:25,13.8333,-88.9167,72.05,71,90,2.26
427,namibe,AO,2022-02-05 02:37:25,-15.1961,12.1522,70.48,69,17,6.29
428,beatrice,US,2022-02-05 02:37:25,40.2681,-96.747,22.44,38,0,5.75
429,dubti,ET,2022-02-05 02:37:26,11.7361,41.0853,72.21,45,73,2.91
430,palafrugell,ES,2022-02-05 02:37:26,41.9174,3.1631,54.72,85,100,3.22
431,margate,GB,2022-02-05 02:37:26,51.3813,1.3862,39.88,80,1,3.0
432,petropavlovsk-kamchatskiy,RU,2022-02-05 02:37:27,53.0452,158.6483,28.99,51,20,13.42
433,cabo san lucas,MX,2022-02-05 02:37:27,22.8909,-109.9124,67.51,68,0,3.44
434,tobermory,CA,2022-02-05 02:37:28,45.2501,-81.6665,10.42,74,100,10.4
435,bushenyi,UG,2022-02-05 02:37:28,-0.5853,30.2114,61.63,75,96,1.83
436,seoul,KR,2022-02-05 02:34:58,37.5683,126.9778,26.17,32,0,10.36
437,grande prairie,CA,2022-02-05 02:37:29,55.1667,-118.8027,8.78,78,75,4.61
438,quang ngai,VN,2022-02-05 02:34:55,15.1167,108.8,70.66,92,100,7.94
439,namuac,PH,2022-02-05 02:37:29,18.6109,121.1657,73.58,84,100,17.45
440,pontes e lacerda,BR,2022-02-05 02:37:30,-15.2261,-59.3353,72.3,91,27,2.53
441,teya,RU,2022-02-05 02:37:30,60.3778,92.6267,18.37,90,100,8.52
442,kimberley,ZA,2022-02-05 02:34:28,-28.7323,24.7623,60.49,94,0,4.61
443,tambilil,PH,2022-02-05 02:37:30,5.9622,124.6697,87.12,59,96,1.7
444,san juan,AR,2022-02-05 02:37:31,-31.5375,-68.5364,78.98,29,0,6.6
445,iberia,US,2022-02-05 02:37:31,29.9502,-91.7507,38.05,75,100,17.27
446,kloulklubed,PW,2022-02-05 02:37:32,7.0419,134.2556,82.9,81,33,18.05
447,stranraer,GB,2022-02-05 02:37:32,54.9023,-5.0273,38.46,80,75,23.24
448,mendi,PG,2022-02-05 02:37:32,-6.1761,143.6513,74.16,44,97,6.2
449,paignton,GB,2022-02-05 02:37:33,50.4357,-3.5679,40.15,92,5,4.0
450,nanpiao,CN,2022-02-05 02:37:33,41.0982,120.7479,20.26,53,0,7.92
451,kuching,MY,2022-02-05 02:37:34,1.55,110.3333,84.42,79,20,3.44
452,chuy,UY,2022-02-05 02:37:34,-33.6971,-53.4616,68.81,94,16,4.56
453,qala,AZ,2022-02-05 02:37:35,40.4418,50.1681,42.69,87,100,23.02
454,porto walter,BR,2022-02-05 02:37:35,-8.2686,-72.7439,72.9,93,100,2.42
455,zharkent,KZ,2022-02-05 02:37:35,44.1628,80.0,26.04,54,15,1.92
456,beidao,CN,2022-02-05 02:37:36,34.5686,105.8933,28.38,76,100,3.65
457,qinggang,CN,2022-02-05 02:37:36,46.6833,126.0833,3.34,86,95,5.93
458,puerto padre,CU,2022-02-05 02:37:37,21.195,-76.6028,70.81,69,0,7.94
459,marienburg,PL,2022-02-05 02:37:37,54.0359,19.0266,41.88,96,100,16.91
460,yushan,CN,2022-02-05 02:37:37,31.3776,120.9543,46.98,50,7,9.15
461,biloela,AU,2022-02-05 02:38:38,-24.4167,150.5,85.89,32,0,14.43
462,victor harbor,AU,2022-02-05 02:38:38,-35.5667,138.6167,81.91,68,78,1.99
463,katsuura,JP,2022-02-05 02:38:39,35.1333,140.3,49.19,41,97,11.21
464,alghero,IT,2022-02-05 02:38:39,40.5589,8.3181,50.99,93,40,6.91
465,viedma,AR,2022-02-05 02:35:49,-40.8135,-62.9967,63.28,68,100,21.59
466,zhezkazgan,KZ,2022-02-05 02:38:40,47.8043,67.7144,-0.42,85,0,17.9
467,brae,GB,2022-02-05 02:38:11,60.3964,-1.353,40.91,66,100,24.63
468,palmer,US,2022-02-05 02:38:40,42.1584,-72.3287,29.75,84,100,3.0
469,yulara,AU,2022-02-05 02:38:41,-25.2406,130.9889,82.24,24,0,12.66
470,bin qirdan,TN,2022-02-05 02:38:41,33.1378,11.2197,55.53,39,16,12.12
471,nantucket,US,2022-02-05 02:35:45,41.2835,-70.0995,37.15,94,100,22.1
472,zabid,YE,2022-02-05 02:38:42,14.1951,43.3152,71.69,72,21,5.99
473,beckley,US,2022-02-05 02:37:45,37.7782,-81.1882,29.23,96,100,1.99
474,colac,AU,2022-02-05 02:38:42,-38.3333,143.5833,76.15,47,42,7.96
475,digras,IN,2022-02-05 02:38:43,20.1167,77.7167,64.11,30,92,4.92
476,provideniya,RU,2022-02-05 02:38:43,64.3833,-173.3,0.07,68,1,10.18
477,saldanha,ZA,2022-02-05 02:38:44,-33.0117,17.9442,60.85,73,0,9.33
478,samarai,PG,2022-02-05 02:38:44,-10.6167,150.6667,85.21,73,96,6.38
479,hereford,GB,2022-02-05 02:38:45,52.0568,-2.7148,40.75,85,16,7.56
480,port hardy,CA,2022-02-05 02:35:40,50.6996,-127.4199,44.76,93,100,8.05
481,chiredzi,ZW,2022-02-05 02:38:45,-21.05,31.6667,69.73,93,74,8.99
482,veraval,IN,2022-02-05 02:38:46,20.9,70.3667,65.95,59,33,1.5
483,mizdah,LY,2022-02-05 02:38:46,31.4451,12.9801,48.63,34,61,8.23
484,pizarro,CO,2022-02-05 02:38:46,4.9533,-77.366,75.43,92,24,6.71
485,tezu,IN,2022-02-05 02:38:47,27.9167,96.1667,55.27,98,100,2.55
486,ostrovnoy,RU,2022-02-05 02:36:44,68.0531,39.5131,13.86,85,100,23.24
487,nanchong,CN,2022-02-05 02:38:47,30.7951,106.0847,50.5,56,100,6.2
488,zhob,PK,2022-02-05 02:38:48,31.3411,69.4481,42.44,42,2,1.07
489,naze,JP,2022-02-05 02:38:48,28.3667,129.4833,56.32,64,98,17.29
490,shelburne,CA,2022-02-05 02:38:48,44.0787,-80.2041,6.57,85,100,7.52
491,praya,CV,2022-02-05 02:36:24,14.9215,-23.5087,70.34,78,0,16.11
492,sisimiut,GL,2022-02-05 02:38:49,66.9395,-53.6735,3.36,90,100,16.69
493,adana,TR,2022-02-05 02:38:49,36.985,35.2881,46.42,61,0,3.44
494,pahrump,US,2022-02-05 02:34:49,36.2083,-115.9839,48.06,27,0,1.99
495,ayorou,NE,2022-02-05 02:38:50,14.7308,0.9174,60.62,12,10,10.45
496,buta,CD,2022-02-05 02:38:50,2.7858,24.73,74.01,55,100,2.89
497,kibala,TD,2022-02-05 02:38:51,9.1104,18.3463,69.58,17,43,5.86
498,pamekasan,ID,2022-02-05 02:38:51,-7.1568,113.4746,84.2,73,82,8.81
499,bethel,US,2022-02-05 02:38:51,41.3712,-73.414,30.92,82,100,10.36
500,yining,CN,2022-02-05 02:38:52,29.0361,114.5636,47.46,60,1,2.62
501,chernyshevskiy,RU,2022-02-05 02:38:52,63.0128,112.4714,-15.47,98,89,2.26
502,batagay,RU,2022-02-05 02:38:52,67.6333,134.6333,-31.43,96,58,0.67
503,los llanos de aridane,ES,2022-02-05 02:34:32,28.6585,-17.9182,58.75,84,0,8.01
504,gamba,GA,2022-02-05 02:34:34,-2.65,10.0,75.09,86,100,3.85
505,mazamari,PE,2022-02-05 02:38:53,-11.3258,-74.5308,69.62,97,59,2.06
506,lexington park,US,2022-02-05 02:35:43,38.2668,-76.4538,38.88,93,100,4.0
507,gillette,US,2022-02-05 02:37:04,44.2911,-105.5022,36.52,42,0,11.01
508,hamilton,US,2022-02-05 02:39:53,39.1834,-84.5333,19.15,83,40,0.0
509,bonavista,CA,2022-02-05 02:39:54,48.6499,-53.1147,29.12,94,100,22.66
510,evensk,RU,2022-02-05 02:39:54,61.95,159.2333,15.49,53,2,14.94
511,puerto escondido,MX,2022-02-05 02:39:54,15.85,-97.0667,79.63,73,0,0.0
512,yurginskoye,RU,2022-02-05 02:39:55,56.8189,67.3921,21.83,83,100,8.68
513,mulege,MX,2022-02-05 02:39:55,26.8833,-111.9833,56.91,44,0,8.46
514,alyangula,AU,2022-02-05 02:34:58,-13.8483,136.4192,78.67,89,40,9.22
515,luanda,AO,2022-02-05 02:39:56,-8.8368,13.2343,75.34,81,99,5.53
516,kodinsk,RU,2022-02-05 02:39:56,58.6881,99.1844,17.98,94,100,6.87
517,chapais,CA,2022-02-05 02:39:56,49.7834,-74.8492,-11.42,95,100,3.36
518,jasper,US,2022-02-05 02:39:57,37.2001,-94.3502,21.25,59,0,1.01
519,kindersley,CA,2022-02-05 02:37:50,51.4668,-109.1682,20.98,86,100,8.05
520,frederikshavn,DK,2022-02-05 02:39:57,57.4407,10.5366,37.35,76,11,22.79
521,houma,US,2022-02-05 02:35:23,29.5958,-90.7195,37.99,88,100,15.39
522,aitape,PG,2022-02-05 02:39:58,-3.1374,142.3475,84.79,72,68,9.26
523,huamachuco,PE,2022-02-05 02:39:58,-7.8,-78.0667,50.68,88,100,2.44
524,zhaozhou,CN,2022-02-05 02:39:59,45.6833,125.3167,3.4,86,97,7.58
525,sidi ali,DZ,2022-02-05 02:35:58,36.0998,0.4206,53.65,58,100,1.92
526,katangli,RU,2022-02-05 02:39:59,51.7102,143.2326,8.4,85,100,18.99
527,mount isa,AU,2022-02-05 02:35:38,-20.7333,139.5,87.57,20,5,8.05
528,carutapera,BR,2022-02-05 02:40:00,-1.195,-46.02,75.54,93,100,5.39
529,lakes entrance,AU,2022-02-05 02:40:01,-37.8811,147.981,71.58,58,34,11.61
530,muros,ES,2022-02-05 02:40:01,42.7762,-9.0603,52.23,81,90,13.89
531,muswellbrook,AU,2022-02-05 02:40:01,-32.2667,150.9,74.25,47,86,15.93
532,fasa,IR,2022-02-05 02:40:02,28.9383,53.6482,43.84,81,0,6.91
533,gitarama,RW,2022-02-05 02:40:03,-2.0744,29.7567,56.66,91,100,2.24
534,songea,TZ,2022-02-05 02:40:03,-10.6833,35.65,63.19,94,100,1.52
535,voiron,FR,2022-02-05 02:40:03,45.3639,5.5921,46.58,83,79,3.27
536,khonsa,IN,2022-02-05 02:40:04,27.0167,95.5667,50.43,98,100,2.24
537,tambura,SS,2022-02-05 02:40:04,5.6,27.4667,70.66,23,100,4.79
538,cabinda,AO,2022-02-05 02:40:05,-5.55,12.2,76.14,82,50,1.68
539,tabou,CI,2022-02-05 02:40:05,4.423,-7.3528,78.31,83,34,4.83
540,ahvaz,IR,2022-02-05 02:37:52,31.3203,48.6693,57.15,54,75,6.91
541,antofagasta,CL,2022-02-05 02:36:03,-23.65,-70.4,65.48,71,4,4.59
542,berdigestyakh,RU,2022-02-05 02:40:06,62.0989,126.6992,-14.89,95,79,4.12
543,tlacotepec,MX,2022-02-05 02:40:06,20.0667,-97.8667,39.45,97,98,2.71
544,qandala,SO,2022-02-05 02:40:07,11.472,49.8728,73.54,50,1,3.27
545,tondano,ID,2022-02-05 02:40:07,1.3038,124.9112,80.69,61,96,4.83
546,shingu,JP,2022-02-05 02:40:07,33.7333,135.9833,40.19,45,11,16.8
547,oistins,BB,2022-02-05 02:40:08,13.0667,-59.5333,77.09,69,40,12.66
548,waipawa,NZ,2022-02-05 02:40:08,-41.4122,175.5153,56.44,93,100,10.0
549,pyay,MM,2022-02-05 02:40:09,18.8167,95.2167,79.27,38,21,5.37
550,wilmington,US,2022-02-05 02:40:09,34.2257,-77.9447,64.31,89,100,9.22
551,kurayoshi,JP,2022-02-05 02:40:10,35.4333,133.8167,33.71,64,100,20.18
552,road town,VG,2022-02-05 02:35:10,18.4167,-64.6167,75.0,76,100,18.99
553,rockland,US,2022-02-05 02:40:10,41.1668,-74.0496,30.49,90,100,6.08
554,tete,MZ,2022-02-05 02:40:11,-16.1564,33.5867,73.49,100,75,5.75
555,fort morgan,US,2022-02-05 02:40:11,40.2503,-103.8,28.09,63,0,6.91
556,awassa,ET,2022-02-05 02:41:11,7.05,38.4667,59.13,32,67,2.75
557,chilmari,BD,2022-02-05 02:41:12,25.5559,89.6715,57.94,89,100,5.12
558,faya,SA,2022-02-05 02:41:12,18.3851,42.4509,53.71,92,25,5.7
559,svetlogorsk,BY,2022-02-05 02:41:12,52.6333,29.7333,12.99,95,97,9.78
560,colorado springs,US,2022-02-05 02:40:00,38.8339,-104.8214,28.56,67,0,1.01
561,sao felix do xingu,BR,2022-02-05 02:41:13,-6.6447,-51.995,71.83,94,67,0.65
562,bismarck,US,2022-02-05 02:41:13,46.8083,-100.7837,12.87,73,100,13.8
563,baherden,TM,2022-02-05 02:41:14,38.4362,57.4316,52.0,33,1,7.56
564,pingzhuang,CN,2022-02-05 02:41:14,42.0372,119.2889,20.73,32,1,16.67
565,kumluca,TR,2022-02-05 02:41:14,36.3703,30.2869,37.67,40,11,7.45
566,sioux lookout,CA,2022-02-05 02:36:55,50.1001,-91.917,-3.62,76,0,2.3
567,esna,EG,2022-02-05 02:41:15,25.2934,32.554,46.42,59,0,6.58
568,broome,US,2022-02-05 02:41:15,42.2506,-75.833,16.7,88,100,4.0
