City_ID,City,Country,Lat,Lng,Max Temp,Humidity,Cloudiness,Wind Speed,Current Description
0,East London,ZA,-33.0153,27.9116,69.69,89,96,15.93,light rain
1,Hermiston,US,45.8404,-119.2895,52.45,61,35,3.44,scattered clouds
2,Aykhal,RU,66.0,111.5,-9.42,99,99,3.33,overcast clouds
3,Isla Vista,US,34.4133,-119.861,68.31,45,0,4.61,clear sky
4,Punta Arenas,CL,-53.15,-70.9167,55.51,62,40,9.22,scattered clouds
5,Katsuura,JP,35.1333,140.3,41.14,33,21,9.71,few clouds
6,Cabo San Lucas,MX,22.8909,-109.9124,68.31,63,0,5.75,clear sky
7,Ternate,ID,0.8,127.4,82.56,76,100,9.71,overcast clouds
8,Naze,JP,28.3667,129.4833,54.52,66,99,14.67,overcast clouds
9,Quesnel,CA,52.9999,-122.5029,34.3,93,100,3.44,overcast clouds
10,Altus,US,34.6381,-99.334,39.27,60,0,13.8,clear sky
11,Puerto Ayora,EC,-0.7393,-90.3518,75.54,93,23,3.0,few clouds
12,Ushuaia,AR,-54.8,-68.3,49.66,57,20,18.41,few clouds
13,Mataura,NZ,-46.1927,168.8643,59.49,40,22,4.52,few clouds
14,Kodiak,US,57.79,-152.4072,40.51,81,100,20.71,light rain
15,Vinh,VN,18.6667,105.6667,61.57,75,100,5.91,overcast clouds
16,Jiayuguan,CN,39.8167,98.3,12.18,81,100,4.76,light snow
17,Bredasdorp,ZA,-34.5322,20.0403,67.28,88,27,14.97,scattered clouds
18,Manta,EC,-0.95,-80.7333,78.58,78,75,4.61,broken clouds
19,Lompoc,US,34.6391,-120.4579,68.31,64,20,11.5,few clouds
20,Castro,BR,-24.7911,-50.0119,64.83,97,100,2.39,overcast clouds
21,Atuona,PF,-9.8,-139.0333,79.09,75,30,21.05,scattered clouds
22,New Norfolk,AU,-42.7826,147.0587,72.72,39,0,1.99,clear sky
23,Bambous Virieux,MU,-20.3428,57.7575,79.21,94,40,10.36,scattered clouds
24,Port Alfred,ZA,-33.5906,26.891,70.52,86,58,25.14,broken clouds
25,Leningradskiy,RU,69.3833,178.4167,-20.94,96,23,3.02,few clouds
26,Butaritari,KI,3.0707,172.7902,82.78,74,90,17.6,overcast clouds
27,Bluff,NZ,-46.6,168.3333,59.81,59,14,11.05,few clouds
28,Sur,OM,22.5667,59.5289,70.57,44,1,7.9,clear sky
29,Kaitangata,NZ,-46.2817,169.8464,54.93,62,62,8.03,broken clouds
30,Touros,BR,-5.1989,-35.4608,81.5,71,22,11.32,few clouds
31,Luanda,AO,-8.8368,13.2343,75.65,84,100,5.5,overcast clouds
32,Thompson,CA,55.7435,-97.8558,-16.44,76,40,3.44,scattered clouds
33,Vaini,TO,-21.2,-175.2,78.96,89,100,16.11,light rain
34,Riyadh,SA,24.6877,46.7219,50.14,37,0,8.9,clear sky
35,Grand Gaube,MU,-20.0064,57.6608,79.38,77,100,8.01,overcast clouds
36,Makat,KZ,47.6469,53.3463,25.07,84,98,17.36,overcast clouds
37,Bethel,US,41.3712,-73.414,21.92,69,0,1.01,clear sky
38,Jardim,BR,-21.4803,-56.1381,72.39,98,100,2.91,light rain
39,Saint George,US,37.1041,-113.5841,52.39,22,0,0.0,clear sky
40,Hualmay,PE,-11.0964,-77.6139,70.03,83,100,8.61,overcast clouds
41,Kisesa,TZ,-3.0833,34.15,60.71,86,95,3.58,overcast clouds
42,Kapaa,US,22.0752,-159.319,79.12,65,0,1.99,clear sky
43,Rikitea,PF,-23.1203,-134.9692,79.57,67,100,13.73,overcast clouds
44,Alofi,NU,-19.0595,-169.9187,78.69,94,100,2.3,overcast clouds
45,Tuktoyaktuk,CA,69.4541,-133.0374,-29.2,68,40,9.22,scattered clouds
46,North Bend,US,43.4065,-124.2243,51.93,89,0,8.05,clear sky
47,Pierre,US,44.3683,-100.351,43.29,52,20,8.99,few clouds
48,Tokur,RU,53.1333,132.9,-4.34,86,100,2.95,overcast clouds
49,Tasiilaq,GL,65.6145,-37.6368,17.76,54,93,7.43,overcast clouds
50,Margate,GB,51.3813,1.3862,51.04,75,100,11.99,overcast clouds
51,Karasjok,NO,69.4719,25.5112,26.71,91,100,18.77,light snow
52,Luba,GQ,3.4568,8.5547,75.09,80,4,3.4,clear sky
53,Udachnyy,RU,66.4167,112.4,-29.09,100,90,1.72,overcast clouds
54,Ilhabela,BR,-23.7781,-45.3581,77.86,89,94,5.21,overcast clouds
55,Kushima,JP,31.4583,131.2333,42.84,47,33,11.95,scattered clouds
56,Maceio,BR,-9.6658,-35.7353,74.64,88,20,3.44,few clouds
57,Georgetown,MY,5.4112,100.3354,80.89,85,20,3.0,few clouds
58,Maningrida,AU,-12.0667,134.2667,87.91,59,14,7.7,few clouds
59,Kiunga,PG,-6.1219,141.2906,91.18,50,83,2.68,broken clouds
60,Sembe,CG,1.6481,14.5806,68.88,29,73,0.47,broken clouds
61,Pangnirtung,CA,66.1451,-65.7125,-32.87,96,100,5.21,overcast clouds
62,Ribeira Grande,PT,38.5167,-28.7,59.54,74,4,15.59,clear sky
63,Teya,RU,60.3778,92.6267,3.13,99,100,2.86,overcast clouds
64,Sao Jose Da Coroa Grande,BR,-8.8978,-35.1478,78.04,75,100,6.31,overcast clouds
65,Myanaung,MM,18.2833,95.3167,73.47,72,30,1.68,scattered clouds
66,Marawi,PH,7.9986,124.2928,72.64,56,74,4.81,broken clouds
67,Languyan,PH,5.2618,120.0807,82.69,75,100,7.16,overcast clouds
68,Vestmannaeyjar,IS,63.4427,-20.2734,28.18,73,100,21.94,light snow
69,Batemans Bay,AU,-35.7167,150.1833,70.92,58,54,12.06,broken clouds
70,Hasaki,JP,35.7333,140.8333,43.29,33,0,14.32,clear sky
71,Russkaya Polyana,UA,49.417,31.9201,31.75,84,100,11.45,overcast clouds
72,Qaanaaq,GL,77.484,-69.3632,-0.11,96,100,3.83,overcast clouds
73,Riacho De Santana,BR,-13.6092,-42.9389,72.0,82,100,4.56,light rain
74,Bengkulu,ID,-3.8004,102.2655,74.35,95,100,12.26,overcast clouds
75,Dikson,RU,73.5069,80.5464,-20.74,100,98,3.74,overcast clouds
76,Torbay,CA,47.6666,-52.7314,45.75,94,100,18.41,moderate rain
77,Carnarvon,AU,-24.8667,113.6333,82.47,69,75,14.97,broken clouds
78,Barotac Viejo,PH,11.0419,122.8522,81.36,71,98,21.27,overcast clouds
79,Kontagora,NG,10.3999,5.4695,70.02,20,0,7.45,clear sky
80,Mahebourg,MU,-20.4081,57.7,79.25,94,40,10.36,scattered clouds
81,Blythe,US,33.6103,-114.5964,64.85,14,0,9.22,clear sky
82,Albany,US,42.6001,-73.9662,12.15,69,7,6.73,clear sky
83,Los Llanos De Aridane,ES,28.6585,-17.9182,65.12,28,0,10.0,clear sky
84,Hermanus,ZA,-34.4187,19.2345,69.91,90,49,9.86,scattered clouds
85,Calatayud,ES,41.3535,-1.6432,45.18,66,2,0.98,clear sky
86,Northam,GB,51.0333,-4.2167,51.03,94,100,32.28,light rain
87,Micheweni,TZ,-4.9667,39.8333,80.11,82,100,8.99,overcast clouds
88,Cayenne,GF,4.9333,-52.3333,80.1,85,20,5.01,few clouds
89,Pisco,PE,-13.7,-76.2167,68.05,88,0,5.75,clear sky
90,Saint-Philippe,RE,-21.3585,55.7679,78.39,84,99,18.19,light rain
91,Raduzhnyy,RU,62.0961,77.475,7.43,95,100,4.81,overcast clouds
92,Barrow,US,71.2906,-156.7887,-20.18,69,0,11.5,clear sky
93,Soderhamn,SE,61.3037,17.0592,31.98,97,100,14.79,snow
94,Lavrentiya,RU,65.5833,-171.0,-15.23,95,25,10.58,scattered clouds
95,Jamestown,US,42.097,-79.2353,12.33,72,0,0.0,clear sky
96,Saskylakh,RU,71.9167,114.0833,-30.93,100,97,2.93,overcast clouds
97,Kavaratti,IN,10.5669,72.642,77.95,60,9,5.01,clear sky
98,Busselton,AU,-33.65,115.3333,71.87,68,71,14.18,broken clouds
99,Nikolskoye,RU,59.7035,30.7861,26.87,96,100,5.12,overcast clouds
100,Hirtshals,DK,57.5881,9.9592,39.02,75,100,22.1,overcast clouds
101,Katobu,ID,-4.9408,122.5276,85.87,64,83,5.99,broken clouds
102,Hobart,AU,-42.8794,147.3294,73.06,47,0,1.99,clear sky
103,Arraial Do Cabo,BR,-22.9661,-42.0278,76.62,87,54,26.49,broken clouds
104,Dingle,PH,10.9995,122.6711,81.64,69,98,19.26,overcast clouds
105,Viedma,AR,-40.8135,-62.9967,55.85,64,0,6.98,clear sky
106,Kyra,RU,49.5776,111.9753,5.9,81,61,3.78,broken clouds
107,Te Anau,NZ,-45.4167,167.7167,65.19,39,1,5.37,clear sky
108,Kichera,RU,55.9375,110.0997,8.17,96,100,2.59,light snow
109,Gimli,CA,50.6336,-96.9907,6.13,85,99,9.22,overcast clouds
110,Cherskiy,RU,68.75,161.3,-28.17,98,25,1.14,scattered clouds
111,Bodden Town,KY,19.2833,-81.25,78.8,72,0,3.0,clear sky
112,Alyangula,AU,-13.8483,136.4192,85.87,79,100,5.75,overcast clouds
113,Bandarbeyla,SO,9.4942,50.8122,73.35,76,10,7.54,clear sky
114,Khatanga,RU,71.9667,102.5,-20.13,98,99,5.44,overcast clouds
115,Khairagarh,IN,26.95,77.8167,47.82,82,0,2.64,clear sky
116,Namatanai,PG,-3.6667,152.4333,86.34,63,56,11.59,broken clouds
117,Vardo,NO,70.3705,31.1107,27.03,79,100,28.03,overcast clouds
118,Voi,KE,-3.3945,38.563,74.62,78,100,3.58,overcast clouds
119,Pascagoula,US,30.3658,-88.5561,42.84,87,0,0.0,clear sky
120,Namibe,AO,-15.1961,12.1522,72.23,67,85,8.86,overcast clouds
121,Sao Filipe,CV,14.8961,-24.4956,73.08,73,0,9.24,clear sky
122,Kendari,ID,-3.945,122.4989,83.61,75,79,8.21,broken clouds
123,Tabuk,PH,17.4189,121.4443,69.55,93,100,2.04,overcast clouds
124,Pangai,TO,-19.8,-174.35,77.11,94,75,6.91,broken clouds
125,Auki,SB,-8.7676,160.7034,83.39,79,80,8.81,broken clouds
126,Taoudenni,ML,22.6783,-3.9836,67.35,11,100,8.77,overcast clouds
127,Airai,TL,-8.9266,125.4092,73.17,63,59,2.46,broken clouds
128,Mount Isa,AU,-20.7333,139.5,91.17,29,40,10.36,scattered clouds
129,Aklavik,CA,68.2191,-135.0107,-31.97,88,60,0.6,broken clouds
130,Waingapu,ID,-9.6567,120.2641,85.33,69,86,10.74,overcast clouds
131,Berlevag,NO,70.8578,29.0864,24.39,83,57,25.84,broken clouds
132,Luderitz,NA,-26.6481,15.1594,66.76,81,92,10.16,overcast clouds
133,Avarua,CK,-21.2078,-159.775,82.45,78,75,19.57,broken clouds
134,Am Timan,TD,11.0297,20.2827,68.99,22,100,6.42,overcast clouds
135,Prince Albert,CA,53.2001,-105.7677,-0.45,65,100,2.3,overcast clouds
136,Dimbokro,CI,6.6451,-4.7048,77.32,81,74,3.49,broken clouds
137,Amapa,BR,1.0,-52.0,71.47,99,100,1.39,overcast clouds
138,Upernavik,GL,72.7868,-56.1549,-1.17,97,100,3.38,overcast clouds
139,Petatlan,MX,17.5167,-101.2667,84.0,77,0,3.15,clear sky
140,Hofn,IS,64.2539,-15.2082,29.91,64,100,15.3,overcast clouds
141,Esperance,AU,-33.8667,121.9,85.84,37,1,13.53,clear sky
142,Santa Marta,CO,11.2408,-74.199,80.65,61,6,13.8,clear sky
143,Bathsheba,BB,13.2167,-59.5167,79.41,69,20,12.66,few clouds
144,Emba,KZ,48.8264,58.1442,16.99,97,100,0.67,overcast clouds
145,Grindavik,IS,63.8424,-22.4338,28.35,93,75,13.8,broken clouds
146,Guia De Isora,ES,28.2115,-16.7795,64.22,53,4,1.99,clear sky
147,Taitung,TW,22.7583,121.1444,64.67,72,75,8.05,broken clouds
148,Chuy,UY,-33.6971,-53.4616,64.09,92,30,8.08,scattered clouds
149,Nizhniy Lomov,RU,53.5304,43.6766,-1.48,100,100,3.69,overcast clouds
150,Sterling,US,39.0062,-77.4286,29.17,58,0,1.01,clear sky
151,Doha,QA,25.2867,51.5333,62.58,46,0,11.5,clear sky
152,Olavarria,AR,-36.8927,-60.3225,57.02,87,95,9.8,overcast clouds
153,Huntingdon,GB,52.3305,-0.1865,49.93,85,100,15.01,overcast clouds
154,Khotkovo,RU,56.257,37.9954,13.78,100,100,6.2,overcast clouds
155,Hilo,US,19.7297,-155.09,78.53,78,75,11.5,broken clouds
156,Providencia,MX,28.7167,-111.5833,70.86,39,0,13.89,clear sky
157,Imeni Poliny Osipenko,RU,52.4201,136.4853,5.38,83,100,7.7,overcast clouds
158,Wasilla,US,61.5814,-149.4394,30.76,73,0,0.0,clear sky
159,Chekmagush,RU,55.1319,54.6556,12.97,99,93,2.37,overcast clouds
160,Cape Town,ZA,-33.9258,18.4232,70.12,70,0,1.01,clear sky
161,Kovdor,RU,67.5662,30.4758,17.62,88,100,8.55,overcast clouds
162,Vyartsilya,RU,62.1764,30.693,21.29,93,100,9.48,overcast clouds
163,Riachao Das Neves,BR,-11.7461,-44.91,70.5,90,86,2.44,overcast clouds
164,Tuatapere,NZ,-46.1333,167.6833,59.83,50,49,6.67,scattered clouds
165,Severo-Kurilsk,RU,50.6789,156.125,30.07,83,92,11.52,overcast clouds
166,Jumla,NP,29.2747,82.1838,30.06,42,0,5.53,clear sky
167,Kasongo-Lunda,CD,-6.4667,16.8167,68.63,98,100,1.03,overcast clouds
168,Nuuk,GL,64.1835,-51.7216,7.41,85,100,4.61,light snow
169,Kruisfontein,ZA,-34.0033,24.7314,66.88,91,22,11.14,few clouds
170,Fortuna,US,40.5982,-124.1573,54.19,79,0,2.91,clear sky
171,Cidreira,BR,-30.1811,-50.2056,74.61,88,88,3.18,overcast clouds
172,Yulara,AU,-25.2406,130.9889,84.04,23,0,9.22,clear sky
173,College,US,64.8569,-147.8028,12.79,82,100,0.0,light snow
174,Kjollefjord,NO,70.9457,27.3465,24.98,81,64,26.75,broken clouds
175,Lebu,CL,-37.6167,-73.65,58.46,82,0,17.25,clear sky
176,Victoria,HK,22.2855,114.1577,62.26,79,99,3.0,overcast clouds
177,Cap Malheureux,MU,-19.9842,57.6142,79.47,77,100,8.01,overcast clouds
178,Vostok,RU,46.4856,135.8833,-0.08,86,100,4.12,overcast clouds
179,Yellowknife,CA,62.456,-114.3525,-15.59,86,20,5.75,few clouds
180,Guayaquil,EC,-2.1667,-79.9,78.94,89,75,13.8,thunderstorm with light rain
181,Port Lincoln,AU,-34.7333,135.8667,78.89,48,8,19.28,clear sky
182,Geraldton,AU,-28.7667,114.6,79.21,69,100,17.27,overcast clouds
183,Mar Del Plata,AR,-38.0023,-57.5575,63.09,75,75,7.0,broken clouds
184,Kudinovo,RU,54.9994,36.2533,17.65,96,100,7.38,snow
185,Salalah,OM,17.0151,54.0924,71.69,73,75,3.44,broken clouds
186,Dongsheng,CN,39.8161,109.9776,14.11,46,100,5.44,overcast clouds
187,Bondoukou,CI,8.0333,-2.8,77.9,20,58,3.67,broken clouds
188,Banda Aceh,ID,5.5577,95.3222,79.41,73,96,7.31,overcast clouds
189,Souillac,MU,-20.5167,57.5167,79.36,94,40,10.36,scattered clouds
190,Karpogory,RU,64.0019,44.4451,2.05,93,11,7.74,few clouds
191,Praia Da Vitoria,PT,38.7333,-27.0667,57.45,94,75,16.4,broken clouds
192,Maniitsoq,GL,65.4167,-52.9,3.31,95,100,1.79,snow
193,Bonavista,CA,48.6499,-53.1147,34.12,98,100,14.94,snow
194,Yuzhou,CN,34.1628,113.4639,34.07,33,100,3.8,light snow
195,Longyearbyen,SJ,78.2186,15.6401,10.24,61,20,19.57,few clouds
196,Quattro Castella,IT,44.635,10.4743,48.83,88,0,2.59,clear sky
197,Gizo,SB,-8.103,156.8419,86.2,70,100,8.9,overcast clouds
198,Lukaya,UG,-0.1489,31.8748,66.25,83,100,2.57,overcast clouds
199,Kinablangan,PH,7.6947,126.5503,80.8,82,28,9.1,scattered clouds
200,Bilibino,RU,68.0546,166.4372,-11.49,85,13,4.03,few clouds
201,Goderich,CA,43.7501,-81.7165,15.91,73,91,9.22,overcast clouds
202,Dhanera,IN,24.5167,72.0167,56.07,51,0,5.53,clear sky
203,Zemio,CF,5.0314,25.1361,66.79,27,100,3.02,overcast clouds
204,Beli Potok,RS,44.7061,20.5197,37.58,68,96,3.69,overcast clouds
205,Havelock,US,34.8791,-76.9013,39.92,72,3,5.99,clear sky
206,Ahipara,NZ,-35.1667,173.1667,75.24,84,100,5.95,light rain
207,Santa Isabel Do Rio Negro,BR,-0.4139,-65.0192,74.73,92,100,2.48,moderate rain
208,Ahlat,TR,38.7518,42.4814,11.17,74,71,3.31,broken clouds
209,Abramovka,RU,51.1886,41.0202,-0.94,100,97,5.41,overcast clouds
210,Pontal Do Parana,BR,-25.6533,-48.5128,83.86,94,100,5.14,overcast clouds
211,Sitka,US,57.0531,-135.33,42.69,75,100,27.63,moderate rain
212,Kati,ML,12.7441,-8.0726,72.81,14,0,3.76,clear sky
213,Zhigansk,RU,66.7697,123.3711,-24.52,98,100,5.55,overcast clouds
214,Huaidian,CN,33.4333,115.0333,38.01,30,100,8.34,overcast clouds
215,Cavalcante,BR,-13.7975,-47.4583,70.38,89,100,1.52,overcast clouds
216,Ostrovnoy,RU,68.0531,39.5131,15.01,84,100,28.54,overcast clouds
217,Klaksvik,FO,62.2266,-6.589,34.72,85,100,13.69,snow
218,Novosheshminsk,RU,55.0651,51.2338,12.65,98,98,3.18,overcast clouds
219,Soyo,AO,-6.1349,12.3689,77.74,84,99,3.51,overcast clouds
220,Pishin,PK,30.5803,66.9961,46.9,40,99,5.3,overcast clouds
221,Constitucion,CL,-35.3333,-72.4167,59.97,74,0,11.36,clear sky
222,Chokurdakh,RU,70.6333,147.9167,-31.81,100,100,1.97,overcast clouds
223,Narsaq,GL,60.9167,-46.05,1.62,70,100,5.01,overcast clouds
224,Faanui,PF,-16.4833,-151.75,80.87,74,17,18.72,light rain
225,Port Hedland,AU,-20.3167,118.5667,89.65,66,40,9.22,scattered clouds
226,Lasa,IT,46.6166,10.7002,36.86,42,3,3.29,clear sky
227,Rawson,AR,-43.3002,-65.1023,61.03,52,95,12.93,overcast clouds
228,La Ronge,CA,55.1001,-105.2842,-3.75,71,100,2.3,overcast clouds
229,Bacolod,PH,10.6667,122.95,83.43,64,99,16.24,overcast clouds
230,Zharkent,KZ,44.1628,80.0,23.58,41,0,3.65,clear sky
231,Danilov,RU,58.1908,40.1717,-2.97,100,94,3.4,overcast clouds
232,Medea,DZ,36.2642,2.7539,39.65,75,35,1.41,scattered clouds
233,Coihaique,CL,-45.5752,-72.0662,59.61,67,0,3.44,clear sky
234,Altay,CN,47.8667,88.1167,7.74,48,0,9.95,clear sky
235,Provideniya,RU,64.3833,-173.3,-1.66,79,0,11.81,clear sky
236,Zyryanovsk,KZ,49.7386,84.2719,-18.11,95,73,2.1,broken clouds
237,Kuchera,IN,26.9839,73.9719,54.09,47,0,8.88,clear sky
238,Vao,NC,-22.6667,167.4833,80.87,84,15,10.54,few clouds
239,Porto Walter,BR,-8.2686,-72.7439,73.87,88,77,2.86,broken clouds
240,Soure,BR,-0.7167,-48.5233,77.94,87,100,7.67,moderate rain
241,Kahului,US,20.8947,-156.47,82.42,69,40,23.02,scattered clouds
242,Shimoda,JP,34.6667,138.95,44.96,50,1,25.41,clear sky
243,Harlingen,US,26.1906,-97.6961,49.95,60,0,8.05,clear sky
244,Vila Velha,BR,-20.3297,-40.2925,76.95,86,0,1.01,clear sky
245,Russell,US,32.3502,-85.1999,42.4,74,0,5.37,clear sky
246,Chimbote,PE,-9.0853,-78.5783,70.14,84,23,7.67,few clouds
247,Hovd,MN,48.0056,91.6419,-13.52,76,12,2.93,few clouds
248,Constantine,DZ,36.365,6.6147,44.01,81,0,3.44,clear sky
249,Olafsvik,IS,64.8945,-23.7142,30.45,72,100,33.96,overcast clouds
250,Fort Nelson,CA,58.8053,-122.7002,4.59,78,75,0.0,broken clouds
251,Itupiranga,BR,-5.1347,-49.3267,72.97,98,98,1.25,overcast clouds
252,Flinders,AU,-34.5833,150.8552,73.2,63,83,15.61,broken clouds
253,Canton,CN,23.1167,113.25,55.99,58,100,6.26,overcast clouds
254,Morondava,MG,-20.2833,44.2833,76.93,84,100,15.55,light rain
255,Umea,SE,63.8284,20.2597,23.92,92,75,2.3,broken clouds
256,Talnakh,RU,69.4865,88.3972,-17.64,100,100,2.66,overcast clouds
257,Charyshskoye,RU,51.3978,83.5598,6.4,78,2,5.77,clear sky
258,Doicesti,RO,44.9833,25.4,32.86,99,17,4.07,few clouds
259,Sandy Bay,AU,-42.913,147.3532,73.09,48,0,1.99,clear sky
260,Zeya,RU,53.75,127.2667,4.62,59,100,2.91,overcast clouds
261,Guerrero Negro,MX,27.9769,-114.0611,61.41,51,0,14.27,clear sky
262,Basco,PH,20.4487,121.9702,72.59,74,100,29.73,overcast clouds
263,Sao Joao Da Barra,BR,-21.6403,-41.0511,77.04,85,2,24.09,clear sky
264,Requena,ES,39.4883,-1.1004,43.72,84,100,2.86,overcast clouds
265,Zelenoborsk,RU,61.4669,64.0333,8.46,96,69,6.96,broken clouds
266,Korbach,DE,51.2756,8.873,39.42,86,100,18.34,moderate rain
267,Kavieng,PG,-2.5744,150.7967,83.89,72,100,7.2,overcast clouds
268,Puerto Escondido,MX,15.85,-97.0667,79.63,73,20,3.44,few clouds
269,Whitehorse,CA,60.7161,-135.0538,27.01,92,100,13.0,light snow
270,Buala,SB,-8.145,159.5921,85.78,74,98,9.48,light rain
271,Minudasht,IR,37.2289,55.3747,43.12,95,100,5.88,overcast clouds
272,Inuvik,CA,68.3499,-133.7218,-24.59,68,75,2.3,light snow
273,Grand Baie,MU,-20.0182,57.5802,79.45,77,100,8.01,overcast clouds
274,Acapulco,MX,16.8634,-99.8901,80.42,78,0,8.05,clear sky
275,Ofaqim,IL,31.3141,34.6203,49.71,78,42,7.7,scattered clouds
276,Camabatela,AO,-8.1881,15.375,60.37,99,91,2.17,overcast clouds
277,Leh,IN,34.1667,77.5833,0.86,78,100,2.08,overcast clouds
278,Taree,AU,-31.9,152.4667,76.06,60,75,19.57,broken clouds
279,Benxi,CN,41.2886,123.765,16.12,63,5,3.85,clear sky
280,Ilulissat,GL,69.2167,-51.1,3.22,51,100,16.11,overcast clouds
281,Taloda,IN,21.5667,74.2167,63.63,26,5,5.79,clear sky
282,Wanning,CN,18.8003,110.3967,69.58,77,93,10.16,overcast clouds
283,Monselice,IT,45.2424,11.749,42.64,90,0,2.28,clear sky
284,Kirakira,SB,-10.4544,161.9205,85.26,74,100,8.55,overcast clouds
285,Rayon,MX,19.1444,-99.5836,59.9,64,67,1.86,broken clouds
286,Erzin,TR,36.9559,36.2,37.92,79,5,3.74,clear sky
287,Paamiut,GL,61.994,-49.6678,-2.4,84,100,9.35,overcast clouds
288,Zhireken,RU,52.8249,117.3076,-2.65,84,58,1.92,broken clouds
289,Valparaiso,CL,-33.0393,-71.6273,68.47,72,0,9.22,clear sky
290,San Miguelito,PA,9.0333,-79.5,80.04,72,0,10.36,clear sky
291,Parit Buntar,MY,5.1267,100.4932,80.94,75,82,3.11,broken clouds
292,Ahuimanu,US,21.4447,-157.8378,83.91,68,20,3.0,few clouds
293,Oranjestad,AW,12.524,-70.027,78.75,69,20,11.5,few clouds
294,Nihtaur,IN,29.3333,78.3833,47.79,83,72,3.74,broken clouds
295,Buguruslan,RU,53.6554,52.442,20.79,97,100,2.95,light snow
296,Henties Bay,NA,-22.116,14.2845,67.86,80,97,0.81,overcast clouds
297,Adrar,MR,20.5022,-10.0711,63.72,7,0,9.08,clear sky
298,Jabinyanah,TN,35.035,10.9081,51.6,73,68,7.96,broken clouds
299,Manoel Urbano,BR,-8.8389,-69.2597,72.63,99,100,2.21,overcast clouds
300,Portobelo,PA,9.55,-79.65,79.21,82,26,11.39,scattered clouds
301,Palmer,US,42.1584,-72.3287,18.21,57,0,10.36,clear sky
302,Sinnamary,GF,5.3833,-52.95,76.5,90,100,8.97,overcast clouds
303,Barcelos,PT,41.5388,-8.6151,50.14,78,0,5.44,clear sky
304,Arys,KZ,42.4252,68.795,46.62,62,100,21.61,light rain
305,Kudahuvadhoo,MV,2.6708,72.8944,81.07,70,6,10.09,clear sky
306,Hithadhoo,MV,-0.6,73.0833,81.64,73,2,6.71,clear sky
307,Boguchany,RU,58.3814,97.4531,11.52,97,99,5.46,overcast clouds
308,Manggar,ID,-2.8833,108.2667,81.37,81,100,9.98,overcast clouds
309,Taltal,CL,-25.4,-70.4833,68.52,73,22,4.34,few clouds
310,Zdvinsk,RU,54.7021,78.661,4.69,87,100,7.18,overcast clouds
311,Saint-Joseph,RE,-21.3667,55.6167,77.38,80,99,13.94,light rain
312,Amli,IN,20.2833,73.0167,62.28,44,10,2.42,clear sky
313,Pevek,RU,69.7008,170.3133,-26.55,99,30,1.66,scattered clouds
314,Sioux Lookout,CA,50.1001,-91.917,8.98,85,100,3.44,overcast clouds
315,Ulaangom,MN,49.9811,92.0667,-23.78,93,97,2.77,overcast clouds
316,Beringovskiy,RU,63.05,179.3167,-8.72,93,80,13.73,broken clouds
317,Guangyuan,CN,32.442,105.823,37.98,83,100,4.68,overcast clouds
318,Avera,US,33.194,-82.5271,42.31,52,0,7.54,clear sky
319,Karasburg,NA,-28.0167,18.75,80.6,32,47,15.01,scattered clouds
320,Devils Lake,US,48.1128,-98.8651,12.18,81,100,1.99,overcast clouds
321,Kishni,IN,27.0247,79.2634,48.79,83,0,3.38,clear sky
322,Eureka,US,40.8021,-124.1637,54.21,79,2,3.4,clear sky
323,Ponta Do Sol,PT,32.6667,-17.1,68.13,47,50,12.95,scattered clouds
324,Rocha,UY,-34.4833,-54.3333,63.39,88,66,7.65,broken clouds
325,Qui Nhon,VN,13.7667,109.2333,73.26,87,100,17.2,overcast clouds
326,Zhaoqing,CN,23.0512,112.4597,55.67,65,100,4.36,light rain
327,Tezu,IN,27.9167,96.1667,55.9,88,92,0.47,overcast clouds
328,Dillon,US,34.4166,-79.3712,39.18,42,0,8.23,clear sky
329,Shelburne,CA,44.0787,-80.2041,12.09,69,84,8.12,broken clouds
330,Pochinki,RU,54.6988,44.8668,-4.56,100,100,3.83,overcast clouds
331,Oriximina,BR,-1.7656,-55.8661,73.96,94,97,2.62,overcast clouds
332,Kloulklubed,PW,7.0419,134.2556,81.88,78,58,21.97,broken clouds
333,Wucheng,CN,29.6008,118.175,41.4,56,100,4.63,overcast clouds
334,Zhezkazgan,KZ,47.8043,67.7144,6.78,78,100,20.13,overcast clouds
335,Livingston,GB,55.9029,-3.5226,39.85,87,75,10.36,moderate rain
336,Tagusao,PH,9.1924,117.8141,81.97,71,69,6.24,broken clouds
337,Alugan,PH,12.2188,125.4808,81.43,72,100,18.92,overcast clouds
338,Burnie,AU,-41.0667,145.9167,66.94,65,32,10.98,scattered clouds
339,Along,IN,28.1667,94.7667,48.81,91,35,1.72,scattered clouds
340,Nanortalik,GL,60.1432,-45.2371,9.14,61,100,13.76,overcast clouds
341,Terney,RU,45.0503,136.6092,11.37,59,15,12.48,few clouds
342,Nome,US,64.5011,-165.4064,-0.33,65,0,5.75,clear sky
343,Brae,GB,60.3964,-1.353,39.11,55,97,34.87,overcast clouds
344,Newry,GB,54.1784,-6.3374,46.11,90,100,16.15,light rain
345,Itatskiy,RU,56.07,89.0369,10.06,92,100,3.44,overcast clouds
346,Vakhrushev,RU,48.9833,142.9667,15.98,88,100,7.16,light snow
347,Puerto Padre,CU,21.195,-76.6028,74.41,76,5,8.28,clear sky
348,Port Augusta,AU,-32.5,137.7667,89.71,19,97,5.44,overcast clouds
349,Karratha,AU,-20.7377,116.8463,91.02,55,49,12.48,scattered clouds
350,Moba,CN,33.2288,105.0179,22.03,90,100,5.14,light snow
351,Santa Maria Do Suacui,BR,-18.1903,-42.4142,69.39,99,100,1.83,overcast clouds
352,Springbok,ZA,-29.6643,17.8865,76.66,36,70,1.32,broken clouds
353,Atar,MR,20.5169,-13.0499,69.49,11,0,4.7,clear sky
354,Quatre Cocos,MU,-20.2078,57.7625,79.09,80,100,14.47,overcast clouds
355,Quchan,IR,37.106,58.5095,29.16,93,52,8.21,broken clouds
356,Mokhsogollokh,RU,61.4681,128.9203,-13.92,96,100,1.88,overcast clouds
357,Salgueiro,BR,-8.0742,-39.1192,78.78,45,93,7.58,overcast clouds
358,Isiro,CD,2.7739,27.616,65.08,35,100,2.21,overcast clouds
359,Xanxere,BR,-26.8769,-52.4042,68.11,98,100,2.33,overcast clouds
360,Port Blair,IN,11.6667,92.75,78.84,94,40,0.0,mist
361,Kuytun,RU,54.3419,101.5036,20.77,77,100,9.26,overcast clouds
362,Uinskoye,RU,56.8817,56.5813,12.06,97,97,4.94,overcast clouds
363,Mkushi,ZM,-13.6202,29.3939,61.56,97,99,2.46,overcast clouds
364,Samarai,PG,-10.6167,150.6667,84.88,70,100,4.09,overcast clouds
365,Porto Santo,PT,33.072,-16.3415,66.31,82,40,26.46,scattered clouds
366,Zhangye,CN,38.9342,100.4517,17.67,87,100,1.74,light snow
367,Progreso,MX,21.2833,-89.6667,71.11,80,92,18.54,overcast clouds
368,Ciudad Bolivar,VE,8.1222,-63.5497,82.24,59,77,14.92,broken clouds
369,Puri,IN,19.8,85.85,55.92,40,22,8.7,few clouds
370,Sao Miguel Do Araguaia,BR,-13.275,-50.1628,74.8,88,100,3.56,heavy intensity rain
371,Loiza,PR,18.4313,-65.8802,73.96,95,75,6.91,light rain
372,Fort Frances,CA,48.5999,-93.4003,8.82,78,100,0.0,overcast clouds
373,Tuckahoe,US,37.5901,-77.5564,31.1,57,0,1.01,clear sky
374,Flagstaff,US,35.1981,-111.6513,40.66,27,0,8.05,clear sky
375,Marzuq,YE,14.4,46.4667,62.29,40,24,3.51,few clouds
376,Vallenar,CL,-28.5708,-70.7581,71.71,51,0,3.02,clear sky
377,Bangkok,TH,13.75,100.5167,84.88,99,99,6.91,overcast clouds
378,San Patricio,US,28.017,-97.5169,45.01,53,0,7.11,clear sky
379,Batangafo,CF,7.3008,18.2833,67.78,24,100,3.24,overcast clouds
380,Veraval,IN,20.9,70.3667,63.19,81,3,7.14,clear sky
381,Townsville,AU,-19.25,146.8,85.08,54,75,12.66,broken clouds
382,Boa Vista,BR,2.8197,-60.6733,84.18,61,75,5.75,broken clouds
383,Comrat,MD,46.3003,28.6572,32.9,83,14,6.33,few clouds
384,Harper,LR,4.375,-7.7169,78.98,86,44,5.75,light rain
385,Lucea,JM,18.451,-78.1736,76.86,67,6,10.4,clear sky
386,Sharjah,AE,25.3573,55.4033,71.58,60,20,17.27,few clouds
387,Mwene-Ditu,CD,-7.0,23.45,63.72,97,100,1.34,light rain
388,Caravelas,BR,-17.7125,-39.2481,75.99,88,19,5.59,few clouds
389,Port Elizabeth,ZA,-33.918,25.5701,69.1,94,75,17.27,broken clouds
390,Walvis Bay,NA,-22.9575,14.5053,68.09,88,94,5.75,overcast clouds
391,Asaba,NG,6.2006,6.7338,72.43,54,50,3.76,scattered clouds
392,Sungaipenuh,ID,-2.0833,101.3833,63.81,99,100,2.42,overcast clouds
393,Onverwacht,SR,5.5833,-55.1833,76.86,100,40,0.0,scattered clouds
394,Tessalit,ML,20.1986,1.0114,59.45,16,6,9.91,clear sky
395,Omsukchan,RU,62.5333,155.8,-8.84,75,16,2.75,few clouds
396,Sibolga,ID,1.7427,98.7792,77.92,86,100,1.63,overcast clouds
397,Ambilobe,MG,-13.2,49.05,72.12,95,98,2.86,overcast clouds
398,Tahe,CN,52.3333,124.7333,7.9,65,100,7.99,overcast clouds
399,Potrero Del Llano,MX,21.05,-97.6833,59.85,70,1,2.98,clear sky
400,Encruzilhada,BR,-15.5314,-40.9094,65.95,98,100,1.45,overcast clouds
401,Manzanillo,CU,20.3433,-77.1167,72.48,76,12,10.71,few clouds
402,Trincomalee,LK,8.5711,81.2335,79.32,68,29,9.37,scattered clouds
403,Honningsvag,NO,70.9821,25.9704,31.89,70,56,33.26,broken clouds
404,Tevaitoa,PF,-16.7833,-151.5,80.87,74,15,19.89,light rain
405,La Plata,AR,-34.9215,-57.9545,64.17,83,95,14.05,overcast clouds
406,Hambantota,LK,6.1241,81.1185,68.34,100,39,3.44,scattered clouds
407,Kostyantynivka,UA,48.5277,37.7069,23.77,96,100,7.81,light snow
408,Zhucheng,CN,35.9947,119.3975,34.68,26,100,7.61,overcast clouds
409,Birao,CF,10.2849,22.7882,67.14,17,100,11.56,overcast clouds
410,Adet,ET,11.2644,37.4888,55.0,64,80,1.81,broken clouds
411,Morro Bay,US,35.3658,-120.8499,68.45,61,79,1.01,broken clouds
412,Arman,RU,59.7,150.1667,12.02,71,32,10.89,scattered clouds
413,Emerald,AU,-23.5333,148.1667,83.34,36,0,12.66,clear sky
414,Tautira,PF,-17.7333,-149.15,86.02,75,36,19.15,moderate rain
415,Port Hardy,CA,50.6996,-127.4199,44.78,81,75,8.05,broken clouds
416,Takoradi,GH,4.8845,-1.7554,79.39,86,4,6.44,light rain
417,Cam Ranh,VN,11.9214,109.1591,75.16,78,75,18.41,broken clouds
418,Lerik,AZ,38.7726,48.4128,23.72,64,4,6.2,clear sky
419,Nagato,JP,34.3833,131.2,43.2,51,18,23.47,few clouds
420,Neftegorsk,RU,52.802,51.166,24.51,97,100,4.14,light snow
421,San Cristobal,VE,7.7669,-72.225,71.78,92,33,1.43,scattered clouds
422,Antigonish,CA,45.6169,-61.9986,20.26,87,100,20.6,overcast clouds
423,Sunrise Manor,US,36.2111,-115.0731,63.55,17,0,3.44,clear sky
424,Dunedin,NZ,-45.8742,170.5036,57.79,61,88,8.01,overcast clouds
425,Rio Grande,BR,-32.035,-52.0986,71.94,77,0,9.01,clear sky
426,Ponta Delgada,PT,37.7333,-25.6667,60.49,82,20,10.36,few clouds
427,Gurupi,BR,-11.7292,-49.0686,76.21,83,100,2.3,moderate rain
428,Ngudu,TZ,-2.9667,33.3333,62.53,86,100,0.45,overcast clouds
429,Coquimbo,CL,-29.9533,-71.3436,62.33,88,75,6.91,broken clouds
430,Oksfjord,NO,70.2396,22.3479,31.12,83,63,14.14,broken clouds
431,Jambi,ID,-1.6,103.6167,75.29,94,99,5.08,overcast clouds
432,Peterhead,GB,57.5058,-1.7981,35.56,74,85,19.3,overcast clouds
433,Vaitape,PF,-16.5167,-151.75,80.89,74,16,18.68,light rain
434,Alanya,TR,36.5438,31.9998,42.93,46,99,6.42,overcast clouds
435,Norman Wells,CA,65.282,-126.8329,-18.36,69,40,2.3,scattered clouds
436,Sangar,RU,63.9242,127.4739,-30.37,96,100,3.6,overcast clouds
437,Bara,NG,10.3744,10.7288,61.52,33,0,7.65,clear sky
438,Mount Airy,US,36.4993,-80.6073,33.66,59,0,5.01,clear sky
439,Yuzhnouralsk,RU,54.4418,61.2536,8.02,96,100,2.28,overcast clouds
440,Isangel,VU,-19.55,169.2667,86.11,89,100,10.36,overcast clouds
441,Alice Springs,AU,-23.7,133.8833,80.15,34,0,8.05,clear sky
442,Vila Franca Do Campo,PT,37.7167,-25.4333,60.19,85,89,12.03,overcast clouds
443,Yar-Sale,RU,66.8333,70.8333,-15.7,100,81,3.38,broken clouds
444,Celestun,MX,20.8667,-90.4,71.64,77,84,18.88,broken clouds
445,Viransehir,TR,37.2353,39.7631,35.04,51,81,2.95,broken clouds
446,Codrington,AU,-38.2667,141.9667,79.12,37,66,9.75,broken clouds
447,Liverpool,GB,53.4106,-2.9779,50.77,80,100,11.99,overcast clouds
448,Qena,EG,26.1615,32.7183,46.51,59,0,5.73,clear sky
449,Lorengau,PG,-2.0226,147.2712,84.31,71,100,8.57,overcast clouds
450,Nambucca Heads,AU,-30.65,153.0,73.4,58,17,19.55,few clouds
451,Ibra,OM,22.6906,58.5334,61.54,38,0,1.43,clear sky
452,Kalmunai,LK,7.4167,81.8167,76.17,75,97,4.88,overcast clouds
453,Deori Khas,IN,23.4,79.0167,51.58,44,6,2.84,clear sky
454,Kayerkan,RU,69.3497,87.7602,-14.94,98,97,2.48,overcast clouds
455,Jalu,LY,29.0331,21.5482,53.98,51,0,6.4,clear sky
456,Hervey Bay,AU,-25.2986,152.8535,80.04,57,32,24.96,scattered clouds
457,Ornskoldsvik,SE,63.2909,18.7153,4.15,100,86,2.3,overcast clouds
458,Legnago,IT,45.1832,11.3091,41.47,83,0,2.04,clear sky
459,Aden,YE,12.7794,45.0367,77.05,66,58,5.37,broken clouds
460,Kamaishi,JP,39.2667,141.8833,25.75,56,50,12.17,light snow
461,Marysville,US,48.0518,-122.1771,47.14,89,0,4.61,clear sky
462,Semnan,IR,35.5729,53.3971,33.64,51,0,2.3,clear sky
463,Palana,RU,59.1167,159.9667,14.56,81,100,6.26,overcast clouds
464,Arlit,NE,18.7369,7.3853,59.95,18,0,9.42,clear sky
465,Terrasini,IT,38.146,13.0844,54.46,81,0,2.3,clear sky
466,Zalesovo,RU,53.9939,84.7431,-2.16,95,50,2.73,scattered clouds
467,Atasu,KZ,48.6814,71.6433,12.15,70,1,13.04,clear sky
468,Nicoya,CR,10.1483,-85.452,78.35,63,4,12.62,clear sky
469,Aripuana,BR,-9.1667,-60.6333,72.09,98,72,2.24,broken clouds
470,Ewa Beach,US,21.3156,-158.0072,84.15,56,100,6.91,overcast clouds
471,Sorland,NO,67.667,12.6934,36.18,86,65,27.6,light rain
472,Dong Xoai,VN,11.5333,106.9167,81.82,51,99,6.78,overcast clouds
473,Gomoh,IN,23.8667,86.1667,55.27,62,2,5.23,clear sky
474,Gat,IL,31.61,34.7642,49.78,100,80,6.22,broken clouds
475,Vondrozo,MG,-22.8167,47.2833,70.97,98,100,23.04,heavy intensity rain
476,Antanifotsy,MG,-19.65,47.3167,62.15,92,100,16.93,light rain
477,Torres,BR,-29.3353,-49.7269,75.83,93,100,3.02,overcast clouds
478,High Level,CA,58.5169,-117.136,-2.09,71,75,3.44,broken clouds
479,Tilichiki,RU,60.4667,166.1,-2.83,76,5,8.63,clear sky
480,Petropavlovsk-Kamchatskiy,RU,53.0452,158.6483,27.19,69,75,22.37,light shower snow
481,Issoire,FR,45.55,3.25,31.26,87,6,3.33,clear sky
482,Moussoro,TD,13.6408,16.4901,60.35,19,0,15.32,clear sky
483,Anloga,GH,5.7947,0.8973,82.62,83,18,7.7,few clouds
484,Praya,CV,14.9215,-23.5087,70.34,83,0,14.97,clear sky
485,San Vicente,AR,-26.6167,-54.1333,64.74,95,33,0.29,scattered clouds
486,Alexandria,EG,31.2156,29.9553,55.36,88,40,3.44,scattered clouds
487,Cururupu,BR,-1.8283,-44.8683,74.8,93,100,2.8,overcast clouds
488,Saint-Francois,FR,46.4154,3.9054,37.42,92,0,6.91,clear sky
489,Opuwo,NA,-18.0607,13.84,66.67,51,100,2.24,overcast clouds
490,Draguignan,FR,43.5333,6.4667,46.08,77,0,0.0,clear sky
491,Bekhtery,UA,46.251,32.2927,34.0,94,100,13.62,overcast clouds
492,Immokalee,US,26.4187,-81.4173,66.15,86,100,12.66,overcast clouds
493,Solginskiy,RU,61.05,41.3428,7.86,97,97,4.45,overcast clouds
494,Nha Trang,VN,12.25,109.1833,75.2,87,100,8.84,overcast clouds
495,Mogadishu,SO,2.0371,45.3438,76.66,81,100,13.71,overcast clouds
496,Moranbah,AU,-22.0016,148.0466,83.03,45,33,17.92,scattered clouds
497,Ilabaya,PE,-17.4208,-70.5133,65.82,70,57,2.01,broken clouds
498,Bairiki,KI,1.3292,172.9752,87.8,70,20,12.66,few clouds
499,Hirara,JP,24.8,125.2833,61.07,67,75,14.97,broken clouds
500,Malpe,IN,13.35,74.7167,70.9,80,94,3.13,overcast clouds
501,Haines Junction,CA,60.7522,-137.5108,30.15,74,100,2.3,overcast clouds
502,Gondal,IN,21.9667,70.8,62.58,77,0,3.87,clear sky
503,Cartagena,CO,10.3997,-75.5144,78.42,78,0,11.5,clear sky
504,Evinayong,GQ,1.4368,10.5512,67.89,97,59,2.71,broken clouds
505,Kabinda,CD,-6.1333,24.4833,64.6,94,97,1.5,overcast clouds
506,Derzhavinsk,KZ,51.1,66.3167,9.54,77,100,13.44,overcast clouds
507,Ozernovskiy,RU,51.5,156.5167,27.43,84,77,9.24,broken clouds
508,Kozhevnikovo,RU,56.2589,83.9714,7.48,92,100,5.23,overcast clouds
509,Teguldet,RU,57.3064,88.1667,11.57,94,100,4.88,overcast clouds
510,Cabedelo,BR,-6.9811,-34.8339,79.47,72,67,9.55,broken clouds
511,Egvekinot,RU,66.3167,-179.1667,-9.15,87,6,9.98,clear sky
512,Rodrigues Alves,BR,-7.738,-72.6509,73.45,93,22,3.06,few clouds
513,Tura,IN,25.5198,90.2201,52.74,83,0,1.81,clear sky
514,Tabou,CI,4.423,-7.3528,78.96,86,28,5.59,light rain
515,Mindelo,CV,16.8901,-24.9804,69.35,73,20,20.71,few clouds
516,Morros,BR,-9.4467,-46.3003,76.14,74,70,3.09,broken clouds
517,Tiksi,RU,71.6872,128.8694,-23.01,98,98,6.11,overcast clouds
518,Joshimath,IN,30.5667,79.5667,38.44,41,20,7.83,few clouds
519,Richards Bay,ZA,-28.783,32.0377,71.82,84,65,6.04,broken clouds
520,Ambovombe,MG,-25.1667,46.0833,74.48,93,100,26.13,light rain
521,Sturgeon Bay,US,44.8342,-87.377,25.2,68,100,19.57,overcast clouds
522,Ilebo,CD,-4.3167,20.5833,70.41,98,100,2.89,moderate rain
523,Cavarzere,IT,45.1356,12.0817,40.82,85,0,1.48,clear sky
524,Marsh Harbour,BS,26.5412,-77.0636,73.38,67,9,9.35,clear sky
525,Raudeberg,NO,61.9875,5.1352,38.07,88,100,11.99,light snow
526,Jatibonico,CU,21.9419,-79.17,66.36,83,0,7.74,clear sky
527,Laguna,US,38.421,-121.4238,62.69,47,0,0.0,clear sky
528,Lodja,CD,-3.4833,23.4333,68.58,88,94,1.68,overcast clouds
529,Togul,RU,53.465,85.9128,-3.26,99,96,2.46,overcast clouds
530,Magadan,RU,59.5667,150.8,11.53,68,17,10.6,few clouds
531,Kroya,ID,-7.6331,109.2461,83.23,73,95,1.34,overcast clouds
532,Poum,NC,-20.2333,164.0167,79.5,88,100,11.32,moderate rain
533,Pedernales,DO,18.0384,-71.744,75.29,71,5,4.0,clear sky
534,Saint Anthony,US,45.0205,-93.218,25.92,71,100,3.0,overcast clouds
535,Sjenica,RS,43.2731,19.9994,23.81,99,99,1.95,overcast clouds
536,Mackenzie,CA,55.2999,-123.1698,37.62,65,100,11.5,overcast clouds
537,Vicuna,CL,-30.0319,-70.7081,55.13,44,0,0.81,clear sky
538,San Angelo,US,31.4638,-100.437,43.02,42,0,6.91,clear sky
539,Santa Rosa,PH,14.3122,121.1114,85.1,67,93,18.39,overcast clouds
540,Koson,UZ,39.0375,65.585,43.12,80,100,9.66,heavy intensity rain
541,Matiri,TZ,-10.75,34.9,62.04,93,100,1.57,light rain
542,Jackson,US,42.4165,-122.8345,53.47,52,0,0.0,clear sky
543,Bonthe,SL,7.5264,-12.505,75.4,87,47,3.44,scattered clouds
544,Bida,NG,9.0833,6.0167,72.55,19,2,5.53,clear sky
545,Alberton,CA,46.8168,-64.0654,15.71,83,100,20.51,overcast clouds
546,Douglas,US,41.3,-96.167,47.5,30,0,4.61,clear sky
547,Balad,IQ,34.0164,44.1453,49.21,58,5,7.65,clear sky
548,Calama,CL,-22.4667,-68.9333,61.29,20,0,16.11,clear sky
549,Byron Bay,AU,-28.65,153.6167,76.05,68,91,20.04,overcast clouds
550,Chudniv,UA,50.052,28.1175,31.23,87,100,15.03,overcast clouds
551,Serebryansk,KZ,49.6925,83.2892,-16.29,89,26,5.1,scattered clouds
552,Atherton,GB,53.5237,-2.4935,49.75,86,100,11.01,overcast clouds
553,Kayes,ML,14.0,-11.0,75.9,10,0,7.38,clear sky
554,Bath,GB,51.3779,-2.3591,50.79,94,100,25.97,light rain
555,Praia,CV,14.9215,-23.5087,70.34,83,0,14.97,clear sky
556,Tateyama,JP,34.9833,139.8667,44.87,38,92,6.46,overcast clouds
557,Mbigou,GA,-1.9005,11.906,66.78,99,58,2.8,broken clouds
558,Uporovo,RU,56.3109,66.2693,14.16,85,100,6.89,overcast clouds
559,Moree,AU,-29.4667,149.85,78.82,36,40,18.41,scattered clouds
560,Maralal,KE,1.0968,36.698,59.31,63,100,1.21,overcast clouds
561,Vetlanda,SE,57.4289,15.0776,35.47,97,100,13.82,overcast clouds
562,Hamilton,US,39.1834,-84.5333,19.81,85,0,0.0,clear sky
563,Fare,PF,-16.7,-151.0167,81.12,74,25,19.33,light rain
564,Da Nang,VN,16.0678,108.2208,73.38,68,75,2.3,broken clouds
565,Punta Alta,AR,-38.8759,-62.0736,61.65,61,90,15.01,overcast clouds
566,Carutapera,BR,-1.195,-46.02,75.49,92,100,5.23,overcast clouds
567,Bealanana,MG,-14.55,48.7333,60.55,97,100,3.69,overcast clouds
568,Tuxtepec,MX,18.1,-96.1167,54.97,77,11,1.59,few clouds
569,Hvolsvollur,IS,63.7533,-20.2243,15.69,86,87,7.76,overcast clouds
570,Baghdad,IQ,33.3406,44.4009,44.51,76,0,4.61,clear sky
571,Twin Falls,US,42.3505,-114.6445,30.54,74,0,14.97,clear sky
572,Lethem,GY,3.3803,-59.7968,76.86,79,100,8.12,overcast clouds
573,Popondetta,PG,-8.7537,148.2534,86.34,67,100,4.81,overcast clouds
574,Kamenka,RU,51.3223,42.7678,-8.59,100,98,4.54,overcast clouds
575,Batticaloa,LK,7.7102,81.6924,77.7,70,63,5.57,broken clouds
576,Verkhnevilyuysk,RU,63.4453,120.3167,-15.99,99,80,2.1,broken clouds
577,Soe,ID,-9.8607,124.284,79.92,63,68,0.63,broken clouds
578,Kuching,MY,1.55,110.3333,80.82,89,20,2.3,few clouds
579,Camacha,PT,33.0833,-16.3333,63.54,82,40,26.46,scattered clouds
580,Tiznit,MA,29.5833,-9.5,60.46,24,67,4.27,broken clouds
581,Corner Brook,CA,48.9667,-57.9484,17.73,97,100,2.89,light snow
582,Panzhihua,CN,26.5851,101.7128,49.71,93,99,4.38,overcast clouds
583,Alto Araguaia,BR,-17.3147,-53.2153,70.63,90,93,1.21,overcast clouds
584,Uren,RU,57.4552,45.7852,11.5,98,100,0.54,overcast clouds
585,Tarakan,ID,3.3,117.6333,76.5,94,75,2.3,very heavy rain
586,Wick,GB,58.4333,-3.0833,37.15,86,100,14.97,overcast clouds
587,Lazaro Cardenas,MX,17.9583,-102.2,74.8,75,0,6.76,clear sky
588,Dali,CN,25.7,100.1833,47.44,80,81,7.63,light rain
589,Sovetskiy,RU,61.3614,63.5842,7.47,97,67,6.33,broken clouds
590,Ketchikan,US,55.3422,-131.6461,46.38,61,100,19.57,overcast clouds
591,Chakwal,PK,32.9334,72.8585,47.71,40,100,2.71,overcast clouds
592,Pangkalanbuun,ID,-2.6833,111.6167,86.02,64,100,3.67,overcast clouds
593,Mpika,ZM,-11.8343,31.4529,61.2,95,100,6.89,overcast clouds
594,Jiuquan,CN,39.7432,98.5174,14.31,80,100,4.45,light snow
595,Lhokseumawe,ID,5.1801,97.1507,79.54,80,77,5.84,broken clouds
596,Alenquer,BR,-1.9417,-54.7383,75.54,94,100,2.62,overcast clouds
597,Vigrestad,NO,58.5667,5.7,39.0,66,100,25.88,light snow
598,Makakilo City,US,21.3469,-158.0858,82.72,57,100,6.91,overcast clouds
599,Nemuro,JP,43.3236,145.575,25.23,67,98,19.91,overcast clouds
600,Kolbermoor,DE,47.85,12.0667,36.16,82,40,5.17,scattered clouds
601,Nijar,ES,36.9665,-2.206,55.04,63,100,0.0,overcast clouds
602,Dinguiraye,GN,11.3,-10.7167,70.02,16,9,1.77,clear sky
603,Blagoyevo,RU,63.3667,47.9167,0.3,94,11,5.68,few clouds
604,Jiaonan,CN,35.8786,119.9753,28.42,30,100,10.13,overcast clouds
605,Sam Roi Yot,TH,12.2708,99.872,81.97,65,49,7.02,scattered clouds
606,Tadine,NC,-21.55,167.8833,83.28,81,33,11.01,scattered clouds
607,Dauriya,RU,49.9333,116.8667,-6.36,95,93,3.65,overcast clouds
608,Maroantsetra,MG,-15.4333,49.7333,76.37,75,100,5.95,overcast clouds
609,Myatlevo,RU,54.8969,35.6762,17.55,96,100,6.24,light snow
610,Marsa Matruh,EG,31.3525,27.2453,46.6,93,20,5.75,few clouds
611,Aksha,RU,50.2814,113.2867,5.45,85,30,4.03,scattered clouds
612,Saldanha,ZA,-33.0117,17.9442,68.05,71,72,2.91,broken clouds
613,Sal Rei,CV,16.1833,-22.9167,68.56,83,0,18.32,clear sky
614,Nanchang,CN,28.6833,115.8833,44.4,69,100,7.78,light rain
615,Bolotnoye,RU,55.6717,84.3981,5.52,88,100,5.32,overcast clouds
616,Estelle,US,29.8458,-90.1067,46.4,61,0,0.0,clear sky
617,Amudat,UG,1.95,34.95,68.59,55,100,2.93,overcast clouds
618,Lamballe,FR,48.4676,-2.5144,49.06,90,100,18.37,overcast clouds
619,Asyut,EG,27.181,31.1837,46.58,63,0,5.53,clear sky
620,Belle Fourche,US,44.6714,-103.8522,40.5,64,91,15.35,overcast clouds
621,Bahia Blanca,AR,-38.7196,-62.2724,61.02,54,80,10.87,broken clouds
622,Maracas,BR,-13.4411,-40.4308,62.8,91,98,3.47,overcast clouds
623,Den Chai,TH,17.9837,100.0522,74.93,74,100,1.63,overcast clouds
624,Erenhot,CN,43.6475,111.9767,6.33,83,5,6.96,clear sky
625,Ancud,CL,-41.8697,-73.8203,59.23,84,88,3.27,overcast clouds
626,Champerico,GT,14.3,-91.9167,81.36,64,27,1.23,scattered clouds
627,Invermere,CA,50.5167,-116.0354,21.63,94,37,1.7,scattered clouds
628,Clyde River,CA,70.4692,-68.5914,-27.17,68,75,3.44,light snow
629,Chara,RU,56.9064,118.2631,-11.78,85,2,0.38,clear sky
630,Kibre Mengist,ET,5.8833,38.9833,54.39,49,98,2.28,overcast clouds
631,Lufilufi,WS,-13.8745,-171.5986,85.78,77,91,14.27,light rain
632,Anadyr,RU,64.75,177.4833,-5.3,71,0,4.47,clear sky
633,Lieksa,FI,63.3167,30.0167,20.3,93,100,10.2,overcast clouds
634,Oyama,JP,36.3,139.8,45.61,26,28,10.11,scattered clouds
635,Pocatello,US,42.8713,-112.4455,26.51,80,20,20.71,few clouds
636,Puerto Del Rosario,ES,28.5004,-13.8627,65.88,88,0,10.36,clear sky
637,Urengoy,RU,65.9667,78.3667,-22.11,100,98,3.96,overcast clouds
638,Kwakoa,TZ,-3.7667,37.7167,69.93,80,100,2.68,light rain
639,Phan Thiet,VN,10.9333,108.1,82.87,53,58,11.18,broken clouds
640,Sao Raimundo Nonato,BR,-9.0153,-42.6994,73.69,66,45,1.03,scattered clouds
641,Mount Gambier,AU,-37.8333,140.7667,85.91,25,40,13.8,scattered clouds
642,Merauke,ID,-8.4667,140.3333,85.78,68,100,11.52,overcast clouds
643,Mandalgovi,MN,45.7625,106.2708,5.77,61,0,6.11,clear sky
644,Parfino,RU,57.9731,31.6481,24.06,97,100,4.85,light snow
645,Yantai,CN,37.5333,121.4,33.6,47,96,8.48,overcast clouds
646,Sehithwa,BW,-20.4667,22.7167,69.62,83,88,7.52,overcast clouds
647,Urucara,BR,-2.5364,-57.76,73.69,99,84,0.81,broken clouds
648,Tiarei,PF,-17.5333,-149.3333,86.02,75,13,19.93,light rain
649,Basqal,AZ,40.7552,48.391,18.12,68,56,5.61,broken clouds
650,Ishigaki,JP,24.3448,124.1572,62.73,77,75,23.02,broken clouds
651,Malindi,KE,-3.2175,40.1191,76.14,89,100,7.49,overcast clouds
652,Hobyo,SO,5.3505,48.5268,74.8,73,10,12.71,clear sky
653,Lukulu,ZM,-14.3707,23.242,64.69,99,100,3.24,moderate rain
654,Paisley,GB,55.8317,-4.4325,41.18,88,40,7.0,scattered clouds
655,Rumford,US,44.5537,-70.5509,8.2,92,39,6.26,scattered clouds
656,Pandan,PH,14.0453,124.1694,79.52,78,54,17.02,broken clouds
657,Salym,RU,60.0625,71.4789,15.55,97,100,2.21,overcast clouds
658,Oksbol,DK,55.6268,8.2876,43.41,92,100,22.5,overcast clouds
659,Pimenta Bueno,BR,-11.6725,-61.1936,72.91,97,39,2.35,scattered clouds
660,Port-Gentil,GA,-0.7193,8.7815,78.89,82,15,10.49,few clouds
661,Wau,SS,7.7029,27.9953,68.67,22,29,6.17,scattered clouds
662,Shingu,JP,33.7333,135.9833,40.19,45,67,15.21,broken clouds
663,Dunmore Town,BS,25.5,-76.65,74.14,74,4,12.91,clear sky
664,Kualakapuas,ID,-3.0091,114.3876,78.96,78,96,2.73,overcast clouds
665,Carpinteria,US,34.3989,-119.5185,66.38,42,6,5.59,clear sky
666,Rupert,US,42.6191,-113.6772,31.89,69,0,0.0,clear sky
667,Lubango,AO,-14.9172,13.4925,58.5,51,97,3.02,overcast clouds
668,Muros,ES,42.7762,-9.0603,47.23,78,10,10.0,clear sky
669,Lagoa,PT,39.05,-27.9833,58.35,77,2,15.75,clear sky
670,Kardla,EE,58.9978,22.7492,32.05,86,43,13.47,scattered clouds
671,Fukue,JP,32.6881,128.8419,41.36,52,75,14.97,broken clouds
672,Paso De Carrasco,UY,-34.8603,-56.0522,68.14,73,75,17.27,broken clouds
673,Inhambane,MZ,-23.865,35.3833,76.68,83,80,16.17,light rain
674,Bure,ET,10.7,37.0667,54.36,61,23,2.15,few clouds
675,Bemidji,US,47.4736,-94.8803,12.49,85,100,3.44,overcast clouds
676,Matara,LK,5.9485,80.5353,73.85,84,17,7.94,few clouds
677,Padang,ID,-0.9492,100.3543,73.45,89,100,3.6,overcast clouds
678,Sola,VU,-13.8833,167.55,82.13,80,98,20.78,overcast clouds
679,Beloha,MG,-25.1667,45.05,73.96,91,100,21.59,moderate rain
680,Shush,IR,32.1942,48.2436,49.93,62,0,5.7,clear sky
681,Thinadhoo,MV,0.5333,72.9333,81.72,71,10,7.61,clear sky
682,Nyrob,RU,60.733,56.7202,9.5,91,14,5.01,few clouds
683,Tvoroyri,FO,61.5556,-6.8111,34.99,60,100,33.87,overcast clouds
684,Faya,SA,18.3851,42.4509,50.11,76,0,1.57,clear sky
685,Husavik,IS,66.0449,-17.3389,30.11,82,100,24.61,light snow
686,Sorong,ID,-0.8833,131.25,84.65,69,100,10.25,overcast clouds
687,Kununurra,AU,-15.7667,128.7333,85.98,74,100,0.0,overcast clouds
688,Stratford,US,41.1845,-73.1332,24.51,56,0,1.01,clear sky
689,Peniche,PT,39.3558,-9.3811,53.1,77,0,12.62,clear sky
690,Iquitos,PE,-3.7481,-73.2472,75.24,94,40,2.3,scattered clouds
691,Zhaotong,CN,27.3167,103.7167,32.0,96,100,6.11,snow
692,Buchanan,LR,5.8808,-10.0467,79.25,85,21,5.28,light rain
693,Gore,NZ,-46.1028,168.9436,58.23,42,22,3.67,few clouds
694,Flin Flon,CA,54.7682,-101.865,-1.16,97,100,5.19,overcast clouds
695,Quzhou,CN,28.9594,118.8686,41.27,62,100,11.1,light rain
696,Penzance,GB,50.1186,-5.5371,51.01,85,100,35.99,overcast clouds
697,Abha,SA,18.2164,42.5053,49.82,87,0,0.0,clear sky
